[
  {
    "objectid": 1,
    "station_name": "Astor Pl",
    "longitude": -73.99107,
    "latitude": 40.730054,
    "line": "4,6,6 Express",
    "line_varname": 466,
    "all_lines_varname": 466,
    "color": "green",
    "notes": "4 nights, 6-all times, 6 Express-weekdays AM southbound, PM northbound"
  },
  {
    "objectid": 2,
    "station_name": "Canal St",
    "longitude": -74.000193,
    "latitude": 40.718803,
    "line": "4,6,6 Express",
    "line_varname": 466,
    "all_lines_varname": 466,
    "color": "green",
    "notes": "4 nights, 6-all times, 6 Express-weekdays AM southbound, PM northbound"
  },
  {
    "objectid": 3,
    "station_name": "50th St",
    "longitude": -73.983849,
    "latitude": 40.761728,
    "line": "1,2",
    "line_varname": 12,
    "all_lines_varname": 12,
    "color": "red",
    "notes": "1-all times, 2-nights"
  },
  {
    "objectid": 4,
    "station_name": "Bergen St",
    "longitude": -73.97499915,
    "latitude": 40.68086214,
    "line": "2,3,4",
    "line_varname": 234,
    "all_lines_varname": 234,
    "color": "multiple",
    "notes": "4-nights, 3-all other times, 2-all times"
  },
  {
    "objectid": 5,
    "station_name": "Pennsylvania Ave",
    "longitude": -73.89488591,
    "latitude": 40.66471445,
    "line": "3,4",
    "line_varname": 34,
    "all_lines_varname": 34,
    "color": "multiple",
    "notes": "4-nights, 3-all other times"
  },
  {
    "objectid": 6,
    "station_name": "238th St",
    "longitude": -73.90087,
    "latitude": 40.884667,
    "line": 1,
    "line_varname": 1,
    "all_lines_varname": 1,
    "color": "red",
    "notes": "1-all times, exit only northbound"
  },
  {
    "objectid": 7,
    "station_name": "Cathedral Pkwy (110th St)",
    "longitude": -73.95806671,
    "latitude": 40.80058156,
    "line": "A,B,C",
    "line_varname": "ABC",
    "all_lines_varname": "ABC",
    "color": "multiple",
    "notes": "A-nights, B-weekdays and evenings, C-all times exc nights"
  },
  {
    "objectid": 8,
    "station_name": "Kingston - Throop Aves",
    "longitude": -73.940859,
    "latitude": 40.679919,
    "line": "A,C",
    "line_varname": "AC",
    "all_lines_varname": "AC",
    "color": "blue",
    "notes": "A-nights, C-all other times"
  },
  {
    "objectid": 9,
    "station_name": "65th St",
    "longitude": -73.89878838,
    "latitude": 40.74971953,
    "line": "E,M,R",
    "line_varname": "EMR",
    "all_lines_varname": "EMR",
    "color": "multiple",
    "notes": "E-nights, R-all other times, M-weekdays and evenings"
  },
  {
    "objectid": 10,
    "station_name": "36th St",
    "longitude": -73.92901818,
    "latitude": 40.75196004,
    "line": "E,M,R",
    "line_varname": "EMR",
    "all_lines_varname": "EMR",
    "color": "multiple",
    "notes": "E-nights, R-all other times, M-weekdays and evenings"
  },
  {
    "objectid": 11,
    "station_name": "Delancey St - Essex St",
    "longitude": -73.9874094,
    "latitude": 40.71830606,
    "line": "J,M,Z",
    "line_varname": "JMZ",
    "all_lines_varname": "JMZ",
    "color": "multiple",
    "notes": "J-all times, M-all times exc nights, Z-rush hours AM westbound, PM eastbound"
  },
  {
    "objectid": 12,
    "station_name": "Van Siclen Ave",
    "longitude": -73.89165773,
    "latitude": 40.67802821,
    "line": "J,Z",
    "line_varname": "JZ",
    "all_lines_varname": "JZ",
    "color": "brown",
    "notes": "Z-rush hours AM westbound, PM eastbound, J-all other times"
  },
  {
    "objectid": 13,
    "station_name": "Norwood Ave",
    "longitude": -73.879626,
    "latitude": 40.68152,
    "line": "J,Z",
    "line_varname": "JZ",
    "all_lines_varname": "JZ",
    "color": "brown",
    "notes": "Z-rush hours AM westbound, PM eastbound, J-all other times"
  },
  {
    "objectid": 14,
    "station_name": "104th-102nd Sts",
    "longitude": -73.844435,
    "latitude": 40.695166,
    "line": "J,Z",
    "line_varname": "JZ",
    "all_lines_varname": "JZ",
    "color": "brown",
    "notes": "Z-rush hours AM westbound, PM eastbound, J-all other times"
  },
  {
    "objectid": 15,
    "station_name": "DeKalb Ave",
    "longitude": -73.98177094,
    "latitude": 40.69064812,
    "line": "B,D,N,Q,R",
    "line_varname": "BDNQR",
    "all_lines_varname": "BDNQR",
    "color": "multiple",
    "notes": "B-weekdays and evenings, D-all other times, N-nights, R-all other times, Q-all times"
  },
  {
    "objectid": 16,
    "station_name": "Beach 105th St",
    "longitude": -73.82758075,
    "latitude": 40.58326844,
    "line": "A,S",
    "line_varname": "AS",
    "all_lines_varname": "AS",
    "color": "multiple",
    "notes": "A-rush hours AM northbound, PM southbound, S Broad Channel to Rockaway Park-all times"
  },
  {
    "objectid": 17,
    "station_name": "Beach 90th St",
    "longitude": -73.8136514,
    "latitude": 40.58809156,
    "line": "A,S",
    "line_varname": "AS",
    "all_lines_varname": "AS",
    "color": "multiple",
    "notes": "A-rush hours AM northbound, PM southbound, S Broad Channel to Rockaway Park-all times"
  },
  {
    "objectid": 18,
    "station_name": "Freeman St",
    "longitude": -73.89175225,
    "latitude": 40.82998745,
    "line": "2,5",
    "line_varname": 25,
    "all_lines_varname": 25,
    "color": "multiple",
    "notes": "2-all times, 5-all times exc nights, skips rush hours AM southbound, PM northbound"
  },
  {
    "objectid": 19,
    "station_name": "Intervale Ave",
    "longitude": -73.89661738,
    "latitude": 40.82214213,
    "line": "2,5",
    "line_varname": 25,
    "all_lines_varname": 25,
    "color": "multiple",
    "notes": "2-all times, 5-all times exc nights, skips rush hours AM southbound, PM northbound"
  },
  {
    "objectid": 20,
    "station_name": "182nd-183rd Sts",
    "longitude": -73.900741,
    "latitude": 40.856093,
    "line": "B,D",
    "line_varname": "BD",
    "all_lines_varname": "BD",
    "color": "orange",
    "notes": "B-rush hours, D-all times, skips rush hours AM southbound, PM northbound"
  },
  {
    "objectid": 21,
    "station_name": "174th-175th Sts",
    "longitude": -73.910136,
    "latitude": 40.8459,
    "line": "B,D",
    "line_varname": "BD",
    "all_lines_varname": "BD",
    "color": "orange",
    "notes": "B-rush hours, D-all times, skips rush hours AM southbound, PM northbound"
  },
  {
    "objectid": 22,
    "station_name": "167th St",
    "longitude": -73.918432,
    "latitude": 40.833769,
    "line": "B,D",
    "line_varname": "BD",
    "all_lines_varname": "BD",
    "color": "orange",
    "notes": "B-rush hours, D-all times, skips rush hours AM southbound, PM northbound"
  },
  {
    "objectid": 23,
    "station_name": "Mets - Willets Point",
    "longitude": -73.845625,
    "latitude": 40.754622,
    "line": "7,7 Express",
    "line_varname": 77,
    "all_lines_varname": 77,
    "color": "purple",
    "notes": "7-all times, 7 Express-rush hours AM westbound, PM eastbound"
  },
  {
    "objectid": 24,
    "station_name": "Junction Blvd",
    "longitude": -73.869527,
    "latitude": 40.749145,
    "line": "7,7 Express",
    "line_varname": 77,
    "all_lines_varname": 77,
    "color": "purple",
    "notes": "7-all times, 7 Express-rush hours AM westbound, PM eastbound"
  },
  {
    "objectid": 25,
    "station_name": "Flushing - Main St",
    "longitude": -73.83003,
    "latitude": 40.7596,
    "line": "7,7 Express",
    "line_varname": 77,
    "all_lines_varname": 77,
    "color": "purple",
    "notes": "7-all times, 7 Express-rush hours AM westbound, PM eastbound"
  },
  {
    "objectid": 26,
    "station_name": "Buhre Ave",
    "longitude": -73.832569,
    "latitude": 40.84681,
    "line": "6,6 Express",
    "line_varname": 66,
    "all_lines_varname": 66,
    "color": "green",
    "notes": "6 Express-weekdays AM southbound, PM northbound, 6-all other times"
  },
  {
    "objectid": 27,
    "station_name": "3rd Ave - 138th St",
    "longitude": -73.926138,
    "latitude": 40.810476,
    "line": "6,6 Express",
    "line_varname": 66,
    "all_lines_varname": 66,
    "color": "green",
    "notes": "6-all times, 6 Express-weekdays AM southbound, PM northbound"
  },
  {
    "objectid": 28,
    "station_name": "Castle Hill Ave",
    "longitude": -73.851222,
    "latitude": 40.834255,
    "line": "6,6 Express",
    "line_varname": 66,
    "all_lines_varname": 66,
    "color": "green",
    "notes": "6 Express-weekdays AM southbound, PM northbound, 6-all other times"
  },
  {
    "objectid": 29,
    "station_name": "Brooklyn Bridge - City Hall",
    "longitude": -74.004131,
    "latitude": 40.713065,
    "line": "4,5,6,6 Express",
    "line_varname": 4566,
    "all_lines_varname": 4566,
    "color": "green",
    "notes": "4,6-all times, 5-all times exc nights, 6 Express-weekdays AM southbound, PM northbound"
  },
  {
    "objectid": 30,
    "station_name": "Zerega Ave",
    "longitude": -73.847036,
    "latitude": 40.836488,
    "line": "6,6 Express",
    "line_varname": 66,
    "all_lines_varname": 66,
    "color": "green",
    "notes": "6 Express-weekdays AM southbound, PM northbound, 6-all other times"
  },
  {
    "objectid": 31,
    "station_name": "Grand Central - 42nd St",
    "longitude": -73.9767133,
    "latitude": 40.75180743,
    "line": "4,5,6,6 Express",
    "line_varname": 4566,
    "all_lines_varname": 4566,
    "color": "green",
    "notes": "4,6-all times, 5-all times exc nights, 6 Express-weekdays AM southbound, PM northbound"
  },
  {
    "objectid": 32,
    "station_name": "33rd St",
    "longitude": -73.982076,
    "latitude": 40.746081,
    "line": "4,6,6 Express",
    "line_varname": 466,
    "all_lines_varname": 466,
    "color": "green",
    "notes": "4 nights, 6-all times, 6 Express-weekdays AM southbound, PM northbound"
  },
  {
    "objectid": 33,
    "station_name": "96th St",
    "longitude": -73.95107,
    "latitude": 40.785672,
    "line": "4,6,6 Express",
    "line_varname": 466,
    "all_lines_varname": 466,
    "color": "green",
    "notes": "4 nights, 6-all times, 6 Express-weekdays AM southbound, PM northbound"
  },
  {
    "objectid": 34,
    "station_name": "77th St",
    "longitude": -73.959874,
    "latitude": 40.77362,
    "line": "4,6,6 Express",
    "line_varname": 466,
    "all_lines_varname": 466,
    "color": "green",
    "notes": "4 nights, 6-all times, 6 Express-weekdays AM southbound, PM northbound"
  },
  {
    "objectid": 35,
    "station_name": "Chauncey St",
    "longitude": -73.91038357,
    "latitude": 40.6828513,
    "line": "J,Z",
    "line_varname": "JZ",
    "all_lines_varname": "JZ",
    "color": "brown",
    "notes": "Z-rush hours AM westbound, PM eastbound, J-all other times"
  },
  {
    "objectid": 36,
    "station_name": "Union St",
    "longitude": -73.98311,
    "latitude": 40.67731567,
    "line": "D,N,R",
    "line_varname": "DNR",
    "all_lines_varname": "DNR",
    "color": "multiple",
    "notes": "D,N-nights, R-all other times"
  },
  {
    "objectid": 37,
    "station_name": "Elmhurst Ave",
    "longitude": -73.88203475,
    "latitude": 40.74237008,
    "line": "E,M,R",
    "line_varname": "EMR",
    "all_lines_varname": "EMR",
    "color": "multiple",
    "notes": "E-nights, R-all other times, M-weekdays and evenings"
  },
  {
    "objectid": 38,
    "station_name": "Ralph Ave",
    "longitude": -73.920786,
    "latitude": 40.678822,
    "line": "A,C",
    "line_varname": "AC",
    "all_lines_varname": "AC",
    "color": "blue",
    "notes": "A-nights, C-all other times"
  },
  {
    "objectid": 39,
    "station_name": "Pelham Pkwy",
    "longitude": -73.86748068,
    "latitude": 40.85719241,
    "line": "2,5",
    "line_varname": 25,
    "all_lines_varname": 25,
    "color": "multiple",
    "notes": "2-all times, 5-rush hours AM southbound, PM northbound"
  },
  {
    "objectid": 40,
    "station_name": "Gun Hill Rd",
    "longitude": -73.86613411,
    "latitude": 40.87783939,
    "line": "2,5",
    "line_varname": 25,
    "all_lines_varname": 25,
    "color": "multiple",
    "notes": "2-all times, 5-rush hours AM southbound, PM northbound"
  },
  {
    "objectid": 41,
    "station_name": "Nereid Ave (238 St)",
    "longitude": -73.85431531,
    "latitude": 40.89828652,
    "line": "2,5",
    "line_varname": 25,
    "all_lines_varname": 25,
    "color": "multiple",
    "notes": "2-all times, 5-rush hours AM southbound, PM northbound"
  },
  {
    "objectid": 42,
    "station_name": "Franklin Ave",
    "longitude": -73.95809974,
    "latitude": 40.67076515,
    "line": "2,3,4,5",
    "line_varname": 2345,
    "all_lines_varname": 2345,
    "color": "multiple",
    "notes": "2,4-all times, 3-all times exc nights, 5-weekdays"
  },
  {
    "objectid": 43,
    "station_name": "Simpson St",
    "longitude": -73.8930664,
    "latitude": 40.82397684,
    "line": "2,5",
    "line_varname": 25,
    "all_lines_varname": 25,
    "color": "multiple",
    "notes": "2-all times, 5-all times exc nights, skips rush hours AM southbound, PM northbound"
  },
  {
    "objectid": 44,
    "station_name": "Bronx Park East",
    "longitude": -73.86835609,
    "latitude": 40.84876867,
    "line": "2,5",
    "line_varname": 25,
    "all_lines_varname": 25,
    "color": "multiple",
    "notes": "2-all times, 5-rush hours AM southbound, PM northbound"
  },
  {
    "objectid": 45,
    "station_name": "Winthrop St",
    "longitude": -73.95007935,
    "latitude": 40.65665931,
    "line": "2,5",
    "line_varname": 25,
    "all_lines_varname": 25,
    "color": "multiple",
    "notes": "2-all times, 5-weekdays"
  },
  {
    "objectid": 46,
    "station_name": "Van Siclen Ave",
    "longitude": -73.88940492,
    "latitude": 40.66551796,
    "line": "3,4",
    "line_varname": 34,
    "all_lines_varname": 34,
    "color": "multiple",
    "notes": "4-nights, 3-all other times"
  },
  {
    "objectid": 47,
    "station_name": "149th St - Grand Concourse",
    "longitude": -73.92738475,
    "latitude": 40.81830344,
    "line": 4,
    "line_varname": 4,
    "all_lines_varname": 4,
    "color": "green",
    "notes": "4-all times"
  },
  {
    "objectid": 48,
    "station_name": "161st St - Yankee Stadium",
    "longitude": -73.925692,
    "latitude": 40.82823033,
    "line": 4,
    "line_varname": 4,
    "all_lines_varname": 4,
    "color": "green",
    "notes": "4-all times"
  },
  {
    "objectid": 49,
    "station_name": "Lexington Ave - 59th St",
    "longitude": -73.967967,
    "latitude": 40.762526,
    "line": "4,5,6,6 Express",
    "line_varname": 4566,
    "all_lines_varname": 4566,
    "color": "green",
    "notes": "4,6-all times, 5-all times exc nights, 6 Express-weekdays AM southbound, PM northbound"
  },
  {
    "objectid": 50,
    "station_name": "E 149th St",
    "longitude": -73.904098,
    "latitude": 40.812118,
    "line": 6,
    "line_varname": 6,
    "all_lines_varname": 6,
    "color": "green",
    "notes": "6-all times"
  },
  {
    "objectid": 51,
    "station_name": "Morrison Av - Soundview",
    "longitude": -73.874516,
    "latitude": 40.829521,
    "line": 6,
    "line_varname": 6,
    "all_lines_varname": 6,
    "color": "green",
    "notes": "6-all times"
  },
  {
    "objectid": 52,
    "station_name": "Whitlock Ave",
    "longitude": -73.886283,
    "latitude": 40.826525,
    "line": 6,
    "line_varname": 6,
    "all_lines_varname": 6,
    "color": "green",
    "notes": "6-all times"
  },
  {
    "objectid": 53,
    "station_name": "St Lawrence Ave",
    "longitude": -73.867618,
    "latitude": 40.831509,
    "line": 6,
    "line_varname": 6,
    "all_lines_varname": 6,
    "color": "green",
    "notes": "6-all times"
  },
  {
    "objectid": 54,
    "station_name": "Woodside - 61st St",
    "longitude": -73.902984,
    "latitude": 40.74563,
    "line": "7,7 Express",
    "line_varname": 77,
    "all_lines_varname": 77,
    "color": "purple",
    "notes": "7-all times, 7 Express-rush hours AM westbound, PM eastbound"
  },
  {
    "objectid": 55,
    "station_name": "Far Rockaway - Mott Ave",
    "longitude": -73.755405,
    "latitude": 40.603995,
    "line": "A",
    "line_varname": "A",
    "all_lines_varname": "A",
    "color": "blue",
    "notes": "A-all times"
  },
  {
    "objectid": 56,
    "station_name": "72nd St",
    "longitude": -73.97633658,
    "latitude": 40.7755194,
    "line": "A,B,C",
    "line_varname": "ABC",
    "all_lines_varname": "ABC",
    "color": "multiple",
    "notes": "A-nights, B-weekdays and evenings, C-all times exc nights"
  },
  {
    "objectid": 57,
    "station_name": "96th St",
    "longitude": -73.96460246,
    "latitude": 40.7916188,
    "line": "A,B,C",
    "line_varname": "ABC",
    "all_lines_varname": "ABC",
    "color": "multiple",
    "notes": "A-nights, B-weekdays and evenings, C-all times exc nights"
  },
  {
    "objectid": 58,
    "station_name": "168th St",
    "longitude": -73.939561,
    "latitude": 40.840719,
    "line": "A,C",
    "line_varname": "AC",
    "all_lines_varname": "AC",
    "color": "blue",
    "notes": "A-all times, C-all times exc nights"
  },
  {
    "objectid": 59,
    "station_name": "Kingsbridge Rd",
    "longitude": -73.893509,
    "latitude": 40.866978,
    "line": "B,D",
    "line_varname": "BD",
    "all_lines_varname": "BD",
    "color": "orange",
    "notes": "B-rush hours, D-all times"
  },
  {
    "objectid": 60,
    "station_name": "42nd St - Bryant Pk",
    "longitude": -73.984591,
    "latitude": 40.754184,
    "line": "B,D,F,M",
    "line_varname": "BDFM",
    "all_lines_varname": "BDFM",
    "color": "orange",
    "notes": "B,M-weekdays and evenings, D,F-all times"
  },
  {
    "objectid": 61,
    "station_name": "Prospect Park",
    "longitude": -73.9620313,
    "latitude": 40.66163346,
    "line": "B,Q,S",
    "line_varname": "BQS",
    "all_lines_varname": "BQS",
    "color": "multiple",
    "notes": "B-weekdays and evenings, Q,S to Franklin Av-Fulton St-all times"
  },
  {
    "objectid": 62,
    "station_name": "55th St",
    "longitude": -73.99534883,
    "latitude": 40.63147876,
    "line": "D",
    "line_varname": "D",
    "all_lines_varname": "D",
    "color": "orange",
    "notes": "D-all times"
  },
  {
    "objectid": 63,
    "station_name": "Jamaica - Van Wyck",
    "longitude": -73.81701287,
    "latitude": 40.70289855,
    "line": "E",
    "line_varname": "E",
    "all_lines_varname": "E",
    "color": "blue",
    "notes": "E-all times"
  },
  {
    "objectid": 64,
    "station_name": "Kew Gardens - Union Tpke",
    "longitude": -73.83037027,
    "latitude": 40.71403482,
    "line": "E,F",
    "line_varname": "EF",
    "all_lines_varname": "EF",
    "color": "multiple",
    "notes": "E,F-all times"
  },
  {
    "objectid": 65,
    "station_name": "Sutphin Blvd - Archer Av",
    "longitude": -73.80800472,
    "latitude": 40.70038242,
    "line": "E,J,Z",
    "line_varname": "EJZ",
    "all_lines_varname": "EJZ",
    "color": "multiple",
    "notes": "E,J-all times, Z-rush hours AM westbound, PM eastbound"
  },
  {
    "objectid": 66,
    "station_name": "Court Sq - 23rd St",
    "longitude": -73.9460547,
    "latitude": 40.74776812,
    "line": "E,M",
    "line_varname": "EM",
    "all_lines_varname": "EM",
    "color": "multiple",
    "notes": "E-all times, M-weekdays and evenings"
  },
  {
    "objectid": 67,
    "station_name": "67th Ave",
    "longitude": -73.85286048,
    "latitude": 40.72650548,
    "line": "E,M,R",
    "line_varname": "EMR",
    "all_lines_varname": "EMR",
    "color": "multiple",
    "notes": "E-nights, R-all other times, M-weekdays and evenings"
  },
  {
    "objectid": 68,
    "station_name": "Grand Ave - Newtown",
    "longitude": -73.87722086,
    "latitude": 40.73681342,
    "line": "E,M,R",
    "line_varname": "EMR",
    "all_lines_varname": "EMR",
    "color": "multiple",
    "notes": "E-nights, R-all other times, M-weekdays and evenings"
  },
  {
    "objectid": 69,
    "station_name": "Ditmas Ave",
    "longitude": -73.978172,
    "latitude": 40.63611867,
    "line": "F",
    "line_varname": "F",
    "all_lines_varname": "F",
    "color": "orange",
    "notes": "F-all times"
  },
  {
    "objectid": 70,
    "station_name": "Classon Ave",
    "longitude": -73.95999,
    "latitude": 40.688889,
    "line": "G",
    "line_varname": "G",
    "all_lines_varname": "G",
    "color": "lightgreen",
    "notes": "G-all times"
  },
  {
    "objectid": 71,
    "station_name": "Broadway",
    "longitude": -73.95031226,
    "latitude": 40.70612658,
    "line": "G",
    "line_varname": "G",
    "all_lines_varname": "G",
    "color": "lightgreen",
    "notes": "G-all times"
  },
  {
    "objectid": 72,
    "station_name": "Lorimer St",
    "longitude": -73.950248,
    "latitude": 40.714072,
    "line": "L",
    "line_varname": "L",
    "all_lines_varname": "L",
    "color": "gray",
    "notes": "L-all times"
  },
  {
    "objectid": 73,
    "station_name": "Sutter Ave",
    "longitude": -73.901916,
    "latitude": 40.669145,
    "line": "L",
    "line_varname": "L",
    "all_lines_varname": "L",
    "color": "gray",
    "notes": "L-all times"
  },
  {
    "objectid": 74,
    "station_name": "Wilson Ave",
    "longitude": -73.9039586,
    "latitude": 40.68886654,
    "line": "L",
    "line_varname": "L",
    "all_lines_varname": "L",
    "color": "gray",
    "notes": "L-all times"
  },
  {
    "objectid": 75,
    "station_name": "Halsey St",
    "longitude": -73.91663888,
    "latitude": 40.68641527,
    "line": "J",
    "line_varname": "J",
    "all_lines_varname": "J",
    "color": "brown",
    "notes": "J-all times"
  },
  {
    "objectid": 76,
    "station_name": "Lorimer St",
    "longitude": -73.947355,
    "latitude": 40.703844,
    "line": "J,M",
    "line_varname": "JM",
    "all_lines_varname": "JM",
    "color": "multiple",
    "notes": "J-all times, skips weekdays AM westbound, PM eastbound, M-all times exc nights"
  },
  {
    "objectid": 77,
    "station_name": "8th Ave",
    "longitude": -74.011516,
    "latitude": 40.634971,
    "line": "N",
    "line_varname": "N",
    "all_lines_varname": "N",
    "color": "yellow",
    "notes": "N-all times"
  },
  {
    "objectid": 78,
    "station_name": "36th Ave",
    "longitude": -73.929862,
    "latitude": 40.756442,
    "line": "N,W",
    "line_varname": "NW",
    "all_lines_varname": "NW",
    "color": "yellow",
    "notes": "N-all times, W part time"
  },
  {
    "objectid": 79,
    "station_name": "Broadway",
    "longitude": -73.925823,
    "latitude": 40.761432,
    "line": "N,W",
    "line_varname": "NW",
    "all_lines_varname": "NW",
    "color": "yellow",
    "notes": "N-all times, W part time"
  },
  {
    "objectid": 80,
    "station_name": "Times Sq - 42nd St",
    "longitude": -73.986768,
    "latitude": 40.754612,
    "line": "N,Q,R,W",
    "line_varname": "NQRW",
    "all_lines_varname": "1237NQRWS",
    "color": "yellow",
    "notes": "N,Q-all times, R-all times exc nights, W part time"
  },
  {
    "objectid": 81,
    "station_name": "Grand Central - 42nd St",
    "longitude": -73.979189,
    "latitude": 40.75276867,
    "line": "S",
    "line_varname": "S",
    "all_lines_varname": "S",
    "color": "shuttlegray",
    "notes": "S to Times Sq-all times exc nights, closed nights-use 7"
  },
  {
    "objectid": 82,
    "station_name": "Park Pl",
    "longitude": -73.957624,
    "latitude": 40.67477167,
    "line": "S",
    "line_varname": "S",
    "all_lines_varname": "S",
    "color": "shuttlegray",
    "notes": "S Franklin Av-Fulton St to Prospect Park-all times"
  },
  {
    "objectid": 83,
    "station_name": "111th St",
    "longitude": -73.832163,
    "latitude": 40.684331,
    "line": "A,S",
    "line_varname": "AS",
    "all_lines_varname": "AS",
    "color": "multiple",
    "notes": "S Euclid Av to Ozone Park-Lefferts Blvd-nights, A-all other times"
  },
  {
    "objectid": 84,
    "station_name": "W 4th St - Washington Sq (Lower)",
    "longitude": -74.00030815,
    "latitude": 40.73225449,
    "line": "B,D,F,M",
    "line_varname": "BDFM",
    "all_lines_varname": "BDFM",
    "color": "orange",
    "notes": "B,M-weekdays and evenings, D,F-all times"
  },
  {
    "objectid": 85,
    "station_name": "51st St",
    "longitude": -73.97192,
    "latitude": 40.757107,
    "line": "4,6,6 Express",
    "line_varname": 466,
    "all_lines_varname": 466,
    "color": "green",
    "notes": "4 nights, 6-all times, 6 Express-weekdays AM southbound, PM northbound"
  },
  {
    "objectid": 86,
    "station_name": "86th St",
    "longitude": -73.976218,
    "latitude": 40.788644,
    "line": "1,2",
    "line_varname": 12,
    "all_lines_varname": 12,
    "color": "red",
    "notes": "1-all times, 2-nights"
  },
  {
    "objectid": 87,
    "station_name": "233rd St",
    "longitude": -73.8573624,
    "latitude": 40.89314324,
    "line": "2,5",
    "line_varname": 25,
    "all_lines_varname": 25,
    "color": "multiple",
    "notes": "2-all times, 5-rush hours AM southbound, PM northbound"
  },
  {
    "objectid": 88,
    "station_name": "66th St - Lincoln Ctr",
    "longitude": -73.982209,
    "latitude": 40.77344,
    "line": "1,2",
    "line_varname": 12,
    "all_lines_varname": 12,
    "color": "red",
    "notes": "1-all times, 2-nights"
  },
  {
    "objectid": 89,
    "station_name": "Hunts Point Ave",
    "longitude": -73.890549,
    "latitude": 40.820948,
    "line": "6,6 Express",
    "line_varname": 66,
    "all_lines_varname": 66,
    "color": "green",
    "notes": "6-all times, 6 Express-weekdays AM southbound, PM northbound"
  },
  {
    "objectid": 90,
    "station_name": "Canal St",
    "longitude": -74.006277,
    "latitude": 40.722854,
    "line": "1,2",
    "line_varname": 12,
    "all_lines_varname": 12,
    "color": "red",
    "notes": "1-all times, 2-nights"
  },
  {
    "objectid": 91,
    "station_name": "Middletown Rd",
    "longitude": -73.836322,
    "latitude": 40.843863,
    "line": "6,6 Express",
    "line_varname": 66,
    "all_lines_varname": 66,
    "color": "green",
    "notes": "6 Express-weekdays AM southbound, PM northbound, 6-all other times"
  },
  {
    "objectid": 92,
    "station_name": "23rd St",
    "longitude": -73.986599,
    "latitude": 40.739864,
    "line": "4,6,6 Express",
    "line_varname": 466,
    "all_lines_varname": 466,
    "color": "green",
    "notes": "4 nights, 6-all times, 6 Express-weekdays AM southbound, PM northbound"
  },
  {
    "objectid": 93,
    "station_name": "Court Sq",
    "longitude": -73.945264,
    "latitude": 40.747023,
    "line": "7,7 Express",
    "line_varname": 77,
    "all_lines_varname": 77,
    "color": "purple",
    "notes": "7-all times, 7 Express-rush hours AM westbound, PM eastbound"
  },
  {
    "objectid": 94,
    "station_name": "59th St - Columbus Circle",
    "longitude": -73.981929,
    "latitude": 40.768247,
    "line": "1,2",
    "line_varname": 12,
    "all_lines_varname": 12,
    "color": "red",
    "notes": "1-all times, 2-nights"
  },
  {
    "objectid": 95,
    "station_name": "Hunters Point Ave",
    "longitude": -73.948916,
    "latitude": 40.742216,
    "line": "7,7 Express",
    "line_varname": 77,
    "all_lines_varname": 77,
    "color": "purple",
    "notes": "7-all times, 7 Express-rush hours AM westbound, PM eastbound"
  },
  {
    "objectid": 96,
    "station_name": "23rd St",
    "longitude": -73.995657,
    "latitude": 40.744081,
    "line": "1,2",
    "line_varname": 12,
    "all_lines_varname": 12,
    "color": "red",
    "notes": "1-all times, 2-nights"
  },
  {
    "objectid": 97,
    "station_name": "Houston St",
    "longitude": -74.005367,
    "latitude": 40.728251,
    "line": "1,2",
    "line_varname": 12,
    "all_lines_varname": 12,
    "color": "red",
    "notes": "1-all times, 2-nights"
  },
  {
    "objectid": 98,
    "station_name": "104th St",
    "longitude": -73.837683,
    "latitude": 40.681711,
    "line": "A,S",
    "line_varname": "AS",
    "all_lines_varname": "AS",
    "color": "multiple",
    "notes": "S Euclid Av to Ozone Park-Lefferts Blvd-nights, A-all other times"
  },
  {
    "objectid": 99,
    "station_name": "Broad Channel",
    "longitude": -73.81583269,
    "latitude": 40.60840218,
    "line": "A,S",
    "line_varname": "AS",
    "all_lines_varname": "AS",
    "color": "multiple",
    "notes": "A,S to Rockaway Park-all times"
  },
  {
    "objectid": 100,
    "station_name": "Ocean Pkwy",
    "longitude": -73.968501,
    "latitude": 40.57631167,
    "line": "Q",
    "line_varname": "Q",
    "all_lines_varname": "Q",
    "color": "yellow",
    "notes": "Q-all times"
  },
  {
    "objectid": 101,
    "station_name": "Vernon Blvd - Jackson Ave",
    "longitude": -73.953581,
    "latitude": 40.742626,
    "line": "7,7 Express",
    "line_varname": 77,
    "all_lines_varname": 77,
    "color": "purple",
    "notes": "7-all times, 7 Express-rush hours AM westbound, PM eastbound"
  },
  {
    "objectid": 102,
    "station_name": "68th St - Hunter College",
    "longitude": -73.96387,
    "latitude": 40.768141,
    "line": "4,6,6 Express",
    "line_varname": 466,
    "all_lines_varname": 466,
    "color": "green",
    "notes": "4 nights, 6-all times, 6 Express-weekdays AM southbound, PM northbound"
  },
  {
    "objectid": 103,
    "station_name": "Queensboro Plz",
    "longitude": -73.94016354,
    "latitude": 40.75063565,
    "line": "7,7 Express,N,W",
    "line_varname": "77NW",
    "all_lines_varname": "77NW",
    "color": "multiple",
    "notes": "7,N-all times, 7 Express-rush hours AM westbound, PM eastbound, W part time"
  },
  {
    "objectid": 104,
    "station_name": "Rockaway Blvd",
    "longitude": -73.843853,
    "latitude": 40.680429,
    "line": "A,S",
    "line_varname": "AS",
    "all_lines_varname": "AS",
    "color": "multiple",
    "notes": "A-all times, S Euclid Av to Ozone Park-Lefferts Blvd-nights"
  },
  {
    "objectid": 105,
    "station_name": "Union Sq - 14th St",
    "longitude": -73.989951,
    "latitude": 40.734673,
    "line": "4,5,6,6 Express",
    "line_varname": 4566,
    "all_lines_varname": 4566,
    "color": "green",
    "notes": "4,6-all times, 5-all times exc nights, 6 Express-weekdays AM southbound, PM northbound"
  },
  {
    "objectid": 106,
    "station_name": "Bedford - Nostrand Aves",
    "longitude": -73.953522,
    "latitude": 40.689627,
    "line": "G",
    "line_varname": "G",
    "all_lines_varname": "G",
    "color": "lightgreen",
    "notes": "G-all times"
  },
  {
    "objectid": 107,
    "station_name": "15th St - Prospect Park",
    "longitude": -73.97973581,
    "latitude": 40.66003569,
    "line": "F,G",
    "line_varname": "FG",
    "all_lines_varname": "FG",
    "color": "multiple",
    "notes": "F,G-all times"
  },
  {
    "objectid": 108,
    "station_name": "7th Ave",
    "longitude": -73.98025118,
    "latitude": 40.66624469,
    "line": "F,G",
    "line_varname": "FG",
    "all_lines_varname": "FG",
    "color": "multiple",
    "notes": "F,G-all times"
  },
  {
    "objectid": 109,
    "station_name": "Ft Hamilton Pkwy",
    "longitude": -73.975776,
    "latitude": 40.65078167,
    "line": "F,G",
    "line_varname": "FG",
    "all_lines_varname": "FG",
    "color": "multiple",
    "notes": "F,G-all times"
  },
  {
    "objectid": 110,
    "station_name": "Church Ave",
    "longitude": -73.97972116,
    "latitude": 40.644272,
    "line": "F,G",
    "line_varname": "FG",
    "all_lines_varname": "FG",
    "color": "multiple",
    "notes": "F,G-all times"
  },
  {
    "objectid": 111,
    "station_name": "Beverly Rd",
    "longitude": -73.9643578,
    "latitude": 40.6439046,
    "line": "Q",
    "line_varname": "Q",
    "all_lines_varname": "Q",
    "color": "yellow",
    "notes": "Q-all times"
  },
  {
    "objectid": 112,
    "station_name": "Church Ave",
    "longitude": -73.96288246,
    "latitude": 40.65049325,
    "line": "B,Q",
    "line_varname": "BQ",
    "all_lines_varname": "BQ",
    "color": "multiple",
    "notes": "B-weekdays and evenings, Q-all times"
  },
  {
    "objectid": 113,
    "station_name": "Newkirk Ave",
    "longitude": -73.96269487,
    "latitude": 40.63514194,
    "line": "B,Q",
    "line_varname": "BQ",
    "all_lines_varname": "BQ",
    "color": "multiple",
    "notes": "B-weekdays and evenings, Q-all times"
  },
  {
    "objectid": 114,
    "station_name": "Parkside Ave",
    "longitude": -73.96145344,
    "latitude": 40.65507304,
    "line": "Q",
    "line_varname": "Q",
    "all_lines_varname": "Q",
    "color": "yellow",
    "notes": "Q-all times"
  },
  {
    "objectid": 115,
    "station_name": "Grand Army Plaza",
    "longitude": -73.97095633,
    "latitude": 40.6752947,
    "line": "2,3,4",
    "line_varname": 234,
    "all_lines_varname": 234,
    "color": "multiple",
    "notes": "4-nights, 3-all other times, 2-all times"
  },
  {
    "objectid": 116,
    "station_name": "Atlantic Av - Barclay's Center",
    "longitude": -73.97754994,
    "latitude": 40.68442017,
    "line": "2,3,4,5",
    "line_varname": 2345,
    "all_lines_varname": 2345,
    "color": "multiple",
    "notes": "2,4-all times, 3-all times exc nights, 5-weekdays"
  },
  {
    "objectid": 117,
    "station_name": "Rockaway Ave",
    "longitude": -73.911946,
    "latitude": 40.67834,
    "line": "A,C",
    "line_varname": "AC",
    "all_lines_varname": "AC",
    "color": "blue",
    "notes": "A-nights, C-all other times"
  },
  {
    "objectid": 118,
    "station_name": "Fulton St",
    "longitude": -73.975375,
    "latitude": 40.687119,
    "line": "G",
    "line_varname": "G",
    "all_lines_varname": "G",
    "color": "lightgreen",
    "notes": "G-all times"
  },
  {
    "objectid": 119,
    "station_name": "Clinton - Washington Aves",
    "longitude": -73.966796,
    "latitude": 40.688094,
    "line": "G",
    "line_varname": "G",
    "all_lines_varname": "G",
    "color": "lightgreen",
    "notes": "G-all times"
  },
  {
    "objectid": 120,
    "station_name": "7th Ave",
    "longitude": -73.97285279,
    "latitude": 40.67710218,
    "line": "B,Q",
    "line_varname": "BQ",
    "all_lines_varname": "BQ",
    "color": "multiple",
    "notes": "B-weekdays and evenings, Q-all times"
  },
  {
    "objectid": 121,
    "station_name": "Atlantic Av - Barclay's Center",
    "longitude": -73.97678344,
    "latitude": 40.68448832,
    "line": "B,Q",
    "line_varname": "BQ",
    "all_lines_varname": "BQ",
    "color": "multiple",
    "notes": "B-weekdays and evenings, Q-all times"
  },
  {
    "objectid": 122,
    "station_name": "Atlantic Av - Barclay's Center",
    "longitude": -73.97881,
    "latitude": 40.68366567,
    "line": "D,N,Q,R",
    "line_varname": "DNQR",
    "all_lines_varname": "DNQR",
    "color": "multiple",
    "notes": "D,N-all times, R-all times exc nights"
  },
  {
    "objectid": 123,
    "station_name": "Borough Hall",
    "longitude": -73.990151,
    "latitude": 40.692404,
    "line": "4,5",
    "line_varname": 45,
    "all_lines_varname": 45,
    "color": "green",
    "notes": "4-all times, 5-weekdays"
  },
  {
    "objectid": 124,
    "station_name": "Aqueduct Racetrack",
    "longitude": -73.835919,
    "latitude": 40.672097,
    "line": "A",
    "line_varname": "A",
    "all_lines_varname": "A",
    "color": "blue",
    "notes": "A-to Manhattan only, racing days only"
  },
  {
    "objectid": 125,
    "station_name": "Morris Park",
    "longitude": -73.860495,
    "latitude": 40.854364,
    "line": 5,
    "line_varname": 5,
    "all_lines_varname": 5,
    "color": "green",
    "notes": "5-all times"
  },
  {
    "objectid": 126,
    "station_name": "Pelham Pkwy",
    "longitude": -73.855359,
    "latitude": 40.858985,
    "line": 5,
    "line_varname": 5,
    "all_lines_varname": 5,
    "color": "green",
    "notes": "5-all times"
  },
  {
    "objectid": 127,
    "station_name": "Nostrand Ave",
    "longitude": -73.950426,
    "latitude": 40.680438,
    "line": "A,C",
    "line_varname": "AC",
    "all_lines_varname": "AC",
    "color": "blue",
    "notes": "A-all times, C-all times exc nights"
  },
  {
    "objectid": 128,
    "station_name": "Nevins St",
    "longitude": -73.9804068,
    "latitude": 40.68831058,
    "line": "2,3,4,5",
    "line_varname": 2345,
    "all_lines_varname": 2345,
    "color": "multiple",
    "notes": "2,4-all times, 3-all times exc nights, 5-weekdays"
  },
  {
    "objectid": 129,
    "station_name": "Eastern Pkwy - Bklyn Museum",
    "longitude": -73.96422204,
    "latitude": 40.67203224,
    "line": "2,3,4",
    "line_varname": 234,
    "all_lines_varname": 234,
    "color": "multiple",
    "notes": "4-nights, 3-all other times, 2-all times"
  },
  {
    "objectid": 130,
    "station_name": "Beverly Rd",
    "longitude": -73.94884798,
    "latitude": 40.64512352,
    "line": "2,5",
    "line_varname": 25,
    "all_lines_varname": 25,
    "color": "multiple",
    "notes": "2-all times, 5-weekdays"
  },
  {
    "objectid": 131,
    "station_name": "Church Ave",
    "longitude": -73.94945514,
    "latitude": 40.65086069,
    "line": "2,5",
    "line_varname": 25,
    "all_lines_varname": 25,
    "color": "multiple",
    "notes": "2-all times, 5-weekdays"
  },
  {
    "objectid": 132,
    "station_name": "Newkirk Ave",
    "longitude": -73.94829991,
    "latitude": 40.63999124,
    "line": "2,5",
    "line_varname": 25,
    "all_lines_varname": 25,
    "color": "multiple",
    "notes": "2-all times, 5-weekdays"
  },
  {
    "objectid": 133,
    "station_name": "Brooklyn College - Flatbush Ave",
    "longitude": -73.94754121,
    "latitude": 40.63284241,
    "line": "2,5",
    "line_varname": 25,
    "all_lines_varname": 25,
    "color": "multiple",
    "notes": "2-all times, 5-weekdays"
  },
  {
    "objectid": 134,
    "station_name": "Sterling St",
    "longitude": -73.95072891,
    "latitude": 40.66277299,
    "line": "2,5",
    "line_varname": 25,
    "all_lines_varname": 25,
    "color": "multiple",
    "notes": "2-all times, 5-weekdays"
  },
  {
    "objectid": 135,
    "station_name": "Crown Hts - Utica Ave",
    "longitude": -73.93293256,
    "latitude": 40.66897831,
    "line": "3,4",
    "line_varname": 34,
    "all_lines_varname": 34,
    "color": "multiple",
    "notes": "3-all times exc nights, 4-all times"
  },
  {
    "objectid": 136,
    "station_name": "Kingston Ave",
    "longitude": -73.94215978,
    "latitude": 40.66948145,
    "line": "3,4",
    "line_varname": 34,
    "all_lines_varname": 34,
    "color": "multiple",
    "notes": "4-nights, 3-all other times"
  },
  {
    "objectid": 137,
    "station_name": "Nassau Ave",
    "longitude": -73.951183,
    "latitude": 40.72448,
    "line": "G",
    "line_varname": "G",
    "all_lines_varname": "G",
    "color": "lightgreen",
    "notes": "G-all times"
  },
  {
    "objectid": 138,
    "station_name": "Greenpoint Ave",
    "longitude": -73.954425,
    "latitude": 40.731267,
    "line": "G",
    "line_varname": "G",
    "all_lines_varname": "G",
    "color": "lightgreen",
    "notes": "G-all times"
  },
  {
    "objectid": 139,
    "station_name": "Marcy Ave",
    "longitude": -73.957832,
    "latitude": 40.708383,
    "line": "J,M,Z",
    "line_varname": "JMZ",
    "all_lines_varname": "JMZ",
    "color": "multiple",
    "notes": "J-all times, M-all times exc nights, Z-rush hours AM westbound, PM eastbound"
  },
  {
    "objectid": 140,
    "station_name": "Hewes St",
    "longitude": -73.953488,
    "latitude": 40.70689,
    "line": "J,M",
    "line_varname": "JM",
    "all_lines_varname": "JM",
    "color": "multiple",
    "notes": "J-all times, skips weekdays AM westbound, PM eastbound, M-all times exc nights"
  },
  {
    "objectid": 141,
    "station_name": "138th St - Grand Concourse",
    "longitude": -73.929849,
    "latitude": 40.813224,
    "line": "4,5",
    "line_varname": 45,
    "all_lines_varname": 45,
    "color": "green",
    "notes": "4-all times, skips rush hours AM southbound, PM northbound, 5-all times exc nights"
  },
  {
    "objectid": 142,
    "station_name": "5th Ave - 53rd St",
    "longitude": -73.97524851,
    "latitude": 40.76008683,
    "line": "E,M",
    "line_varname": "EM",
    "all_lines_varname": "EM",
    "color": "multiple",
    "notes": "E-all times, M-weekdays and evenings"
  },
  {
    "objectid": 143,
    "station_name": "Lexington Ave - 53rd St",
    "longitude": -73.96907237,
    "latitude": 40.75746831,
    "line": "E,M",
    "line_varname": "EM",
    "all_lines_varname": "EM",
    "color": "multiple",
    "notes": "E-all times, M-weekdays and evenings"
  },
  {
    "objectid": 144,
    "station_name": "28th St",
    "longitude": -73.988698,
    "latitude": 40.745454,
    "line": "N,Q,R,W",
    "line_varname": "NQRW",
    "all_lines_varname": "NQRW",
    "color": "yellow",
    "notes": "N-all times, R-all times exc nights, part time"
  },
  {
    "objectid": 145,
    "station_name": "Herald Sq - 34th St",
    "longitude": -73.98793683,
    "latitude": 40.74964456,
    "line": "N,Q,R,W",
    "line_varname": "NQRW",
    "all_lines_varname": "NQRW",
    "color": "yellow",
    "notes": "N,Q-all times, R-all times exc nights"
  },
  {
    "objectid": 146,
    "station_name": "1st Ave",
    "longitude": -73.98168087,
    "latitude": 40.73097498,
    "line": "L",
    "line_varname": "L",
    "all_lines_varname": "L",
    "color": "gray",
    "notes": "L-all times"
  },
  {
    "objectid": 147,
    "station_name": "Times Sq - 42nd St",
    "longitude": -73.986229,
    "latitude": 40.755983,
    "line": "S",
    "line_varname": "S",
    "all_lines_varname": "1237NQRWS",
    "color": "shuttlegray",
    "notes": "S to Grand Central-all times exc nights, closed nights-use 7"
  },
  {
    "objectid": 148,
    "station_name": "Metropolitan Ave",
    "longitude": -73.951424,
    "latitude": 40.712774,
    "line": "G",
    "line_varname": "G",
    "all_lines_varname": "G",
    "color": "lightgreen",
    "notes": "G-all times"
  },
  {
    "objectid": 149,
    "station_name": "Grand St",
    "longitude": -73.940497,
    "latitude": 40.711576,
    "line": "L",
    "line_varname": "L",
    "all_lines_varname": "L",
    "color": "gray",
    "notes": "L-all times"
  },
  {
    "objectid": 150,
    "station_name": "Graham Ave",
    "longitude": -73.943944,
    "latitude": 40.714576,
    "line": "L",
    "line_varname": "L",
    "all_lines_varname": "L",
    "color": "gray",
    "notes": "L-all times"
  },
  {
    "objectid": 151,
    "station_name": "Bedford Ave",
    "longitude": -73.956665,
    "latitude": 40.717174,
    "line": "L",
    "line_varname": "L",
    "all_lines_varname": "L",
    "color": "gray",
    "notes": "L-all times"
  },
  {
    "objectid": 152,
    "station_name": "Montrose Ave",
    "longitude": -73.93979285,
    "latitude": 40.70739106,
    "line": "L",
    "line_varname": "L",
    "all_lines_varname": "L",
    "color": "gray",
    "notes": "L-all times"
  },
  {
    "objectid": 153,
    "station_name": "Long Island City - Court Sq",
    "longitude": -73.9438156,
    "latitude": 40.74630503,
    "line": "G",
    "line_varname": "G",
    "all_lines_varname": "G",
    "color": "lightgreen",
    "notes": "G-all times"
  },
  {
    "objectid": 154,
    "station_name": "21st St",
    "longitude": -73.9496,
    "latitude": 40.74412867,
    "line": "G",
    "line_varname": "G",
    "all_lines_varname": "G",
    "color": "lightgreen",
    "notes": "G-all times"
  },
  {
    "objectid": 155,
    "station_name": "39th Ave",
    "longitude": -73.93285138,
    "latitude": 40.75276306,
    "line": "N,W",
    "line_varname": "NW",
    "all_lines_varname": "NW",
    "color": "yellow",
    "notes": "N-all times, W part time"
  },
  {
    "objectid": 156,
    "station_name": "145th St",
    "longitude": -73.95036,
    "latitude": 40.826551,
    "line": 1,
    "line_varname": 1,
    "all_lines_varname": 1,
    "color": "red",
    "notes": "1-all times"
  },
  {
    "objectid": 157,
    "station_name": "157th St",
    "longitude": -73.94489,
    "latitude": 40.834041,
    "line": 1,
    "line_varname": 1,
    "all_lines_varname": 1,
    "color": "red",
    "notes": "1-all times"
  },
  {
    "objectid": 158,
    "station_name": "96th St",
    "longitude": -73.972323,
    "latitude": 40.793919,
    "line": "1,2,3",
    "line_varname": 123,
    "all_lines_varname": 123,
    "color": "red",
    "notes": "1,2,3-all times"
  },
  {
    "objectid": 159,
    "station_name": "103rd St",
    "longitude": -73.968379,
    "latitude": 40.799446,
    "line": 1,
    "line_varname": 1,
    "all_lines_varname": 1,
    "color": "red",
    "notes": "1-all times"
  },
  {
    "objectid": 160,
    "station_name": "Central Park North (110th St)",
    "longitude": -73.951822,
    "latitude": 40.799075,
    "line": "2,3",
    "line_varname": 23,
    "all_lines_varname": 23,
    "color": "red",
    "notes": "2,3-all times"
  },
  {
    "objectid": 161,
    "station_name": "103rd St",
    "longitude": -73.96137008,
    "latitude": 40.79606074,
    "line": "A,B,C",
    "line_varname": "ABC",
    "all_lines_varname": "ABC",
    "color": "multiple",
    "notes": "A-nights, B-weekdays and evenings, C-all times exc nights"
  },
  {
    "objectid": 162,
    "station_name": "72nd St",
    "longitude": -73.98197,
    "latitude": 40.778453,
    "line": "1,2,3",
    "line_varname": 123,
    "all_lines_varname": 123,
    "color": "red",
    "notes": "1,2,3-all times"
  },
  {
    "objectid": 163,
    "station_name": "81st St",
    "longitude": -73.97209795,
    "latitude": 40.78134608,
    "line": "A,B,C",
    "line_varname": "ABC",
    "all_lines_varname": "ABC",
    "color": "multiple",
    "notes": "A-nights, B-weekdays and evenings, C-all times exc nights"
  },
  {
    "objectid": 164,
    "station_name": "75th Ave",
    "longitude": -73.83692369,
    "latitude": 40.71804465,
    "line": "E,F",
    "line_varname": "EF",
    "all_lines_varname": "EF",
    "color": "multiple",
    "notes": "E-evenings, weekends, nights, F-all times"
  },
  {
    "objectid": 165,
    "station_name": "86th St",
    "longitude": -73.96882849,
    "latitude": 40.78582305,
    "line": "A,B,C",
    "line_varname": "ABC",
    "all_lines_varname": "ABC",
    "color": "multiple",
    "notes": "A-nights, B-weekdays and evenings, C-all times exc nights"
  },
  {
    "objectid": 166,
    "station_name": "Cathedral Pkwy (110th St)",
    "longitude": -73.966847,
    "latitude": 40.803967,
    "line": 1,
    "line_varname": 1,
    "all_lines_varname": 1,
    "color": "red",
    "notes": "1-all times"
  },
  {
    "objectid": 167,
    "station_name": "116th St - Columbia University",
    "longitude": -73.96411,
    "latitude": 40.807722,
    "line": 1,
    "line_varname": 1,
    "all_lines_varname": 1,
    "color": "red",
    "notes": "1-all times"
  },
  {
    "objectid": 168,
    "station_name": "125th St",
    "longitude": -73.945495,
    "latitude": 40.807754,
    "line": "2,3",
    "line_varname": 23,
    "all_lines_varname": 23,
    "color": "red",
    "notes": "2,3-all times"
  },
  {
    "objectid": 169,
    "station_name": "135th St",
    "longitude": -73.94077,
    "latitude": 40.814229,
    "line": "2,3",
    "line_varname": 23,
    "all_lines_varname": 23,
    "color": "red",
    "notes": "2,3-all times"
  },
  {
    "objectid": 170,
    "station_name": "116th St",
    "longitude": -73.949625,
    "latitude": 40.802098,
    "line": "2,3",
    "line_varname": 23,
    "all_lines_varname": 23,
    "color": "red",
    "notes": "2,3-all times"
  },
  {
    "objectid": 171,
    "station_name": "Tremont Ave",
    "longitude": -73.905227,
    "latitude": 40.85041,
    "line": "B,D",
    "line_varname": "BD",
    "all_lines_varname": "BD",
    "color": "orange",
    "notes": "B-rush hours, D-all times"
  },
  {
    "objectid": 172,
    "station_name": "137th St - City College",
    "longitude": -73.953676,
    "latitude": 40.822008,
    "line": 1,
    "line_varname": 1,
    "all_lines_varname": 1,
    "color": "red",
    "notes": "1-all times"
  },
  {
    "objectid": 173,
    "station_name": "145th St",
    "longitude": -73.936245,
    "latitude": 40.820421,
    "line": 3,
    "line_varname": 3,
    "all_lines_varname": 3,
    "color": "red",
    "notes": "3-all times, exit only northbound"
  },
  {
    "objectid": 174,
    "station_name": "176th St",
    "longitude": -73.911794,
    "latitude": 40.84848,
    "line": 4,
    "line_varname": 4,
    "all_lines_varname": 4,
    "color": "green",
    "notes": "4-all times"
  },
  {
    "objectid": 175,
    "station_name": "Burnside Ave",
    "longitude": -73.907684,
    "latitude": 40.853453,
    "line": 4,
    "line_varname": 4,
    "all_lines_varname": 4,
    "color": "green",
    "notes": "4-all times"
  },
  {
    "objectid": 176,
    "station_name": "170th St",
    "longitude": -73.9134,
    "latitude": 40.839306,
    "line": "B,D",
    "line_varname": "BD",
    "all_lines_varname": "BD",
    "color": "orange",
    "notes": "B-rush hours, D-all times, skips rush hours AM southbound, PM northbound"
  },
  {
    "objectid": 177,
    "station_name": "168th St",
    "longitude": -73.940133,
    "latitude": 40.840556,
    "line": 1,
    "line_varname": 1,
    "all_lines_varname": 1,
    "color": "red",
    "notes": "1-all times"
  },
  {
    "objectid": 178,
    "station_name": "181st St",
    "longitude": -73.933596,
    "latitude": 40.849505,
    "line": 1,
    "line_varname": 1,
    "all_lines_varname": 1,
    "color": "red",
    "notes": "1-all times"
  },
  {
    "objectid": 179,
    "station_name": "191st St",
    "longitude": -73.929412,
    "latitude": 40.855225,
    "line": 1,
    "line_varname": 1,
    "all_lines_varname": 1,
    "color": "red",
    "notes": "1-all times"
  },
  {
    "objectid": 180,
    "station_name": "175th St",
    "longitude": -73.939704,
    "latitude": 40.847391,
    "line": "A",
    "line_varname": "A",
    "all_lines_varname": "A",
    "color": "blue",
    "notes": "A-all times"
  },
  {
    "objectid": 181,
    "station_name": "Beach 44th St",
    "longitude": -73.776013,
    "latitude": 40.592943,
    "line": "A",
    "line_varname": "A",
    "all_lines_varname": "A",
    "color": "blue",
    "notes": "A-all times"
  },
  {
    "objectid": 182,
    "station_name": "Beach 60th St",
    "longitude": -73.788522,
    "latitude": 40.592374,
    "line": "A",
    "line_varname": "A",
    "all_lines_varname": "A",
    "color": "blue",
    "notes": "A-all times"
  },
  {
    "objectid": 183,
    "station_name": "Beach 98th St",
    "longitude": -73.82052059,
    "latitude": 40.58538569,
    "line": "A,S",
    "line_varname": "AS",
    "all_lines_varname": "AS",
    "color": "multiple",
    "notes": "A-rush hours AM northbound, PM southbound, S Broad Channel to Rockaway Park-all times"
  },
  {
    "objectid": 184,
    "station_name": "Rockaway Park - Beach 116 St",
    "longitude": -73.83559009,
    "latitude": 40.58095587,
    "line": "A,S",
    "line_varname": "AS",
    "all_lines_varname": "AS",
    "color": "multiple",
    "notes": "A-rush hours AM northbound, PM southbound, S to Broad Channel-all times"
  },
  {
    "objectid": 185,
    "station_name": "Beach 36th St",
    "longitude": -73.768175,
    "latitude": 40.595398,
    "line": "A",
    "line_varname": "A",
    "all_lines_varname": "A",
    "color": "blue",
    "notes": "A-all times"
  },
  {
    "objectid": 186,
    "station_name": "Beach 25th St",
    "longitude": -73.761353,
    "latitude": 40.600066,
    "line": "A",
    "line_varname": "A",
    "all_lines_varname": "A",
    "color": "blue",
    "notes": "A-all times"
  },
  {
    "objectid": 187,
    "station_name": "Parsons Blvd",
    "longitude": -73.803289,
    "latitude": 40.707572,
    "line": "F",
    "line_varname": "F",
    "all_lines_varname": "F",
    "color": "orange",
    "notes": "F-all times"
  },
  {
    "objectid": 188,
    "station_name": "169th St",
    "longitude": -73.7934742,
    "latitude": 40.7105175,
    "line": "F",
    "line_varname": "F",
    "all_lines_varname": "F",
    "color": "orange",
    "notes": "F-all times"
  },
  {
    "objectid": 189,
    "station_name": "103rd St - Corona Plaza",
    "longitude": -73.8627,
    "latitude": 40.749865,
    "line": 7,
    "line_varname": 7,
    "all_lines_varname": 7,
    "color": "purple",
    "notes": "7-all times"
  },
  {
    "objectid": 190,
    "station_name": "111th St",
    "longitude": -73.855334,
    "latitude": 40.75173,
    "line": 7,
    "line_varname": 7,
    "all_lines_varname": 7,
    "color": "purple",
    "notes": "7-all times"
  },
  {
    "objectid": 191,
    "station_name": "63rd Dr - Rego Park",
    "longitude": -73.8616182,
    "latitude": 40.72976397,
    "line": "E,M,R",
    "line_varname": "EMR",
    "all_lines_varname": "EMR",
    "color": "multiple",
    "notes": "E-nights, R-all other times, M-weekdays and evenings"
  },
  {
    "objectid": 192,
    "station_name": "Grant Ave",
    "longitude": -73.86505,
    "latitude": 40.677044,
    "line": "A,S",
    "line_varname": "AS",
    "all_lines_varname": "AS",
    "color": "multiple",
    "notes": "A-all times, S Euclid Av to Ozone Park-Lefferts Blvd-nights"
  },
  {
    "objectid": 193,
    "station_name": "79th St",
    "longitude": -73.979917,
    "latitude": 40.783934,
    "line": "1,2",
    "line_varname": 12,
    "all_lines_varname": 12,
    "color": "red",
    "notes": "1-all times, 2-nights"
  },
  {
    "objectid": 194,
    "station_name": "Atlantic Ave",
    "longitude": -73.903097,
    "latitude": 40.67534467,
    "line": "L",
    "line_varname": "L",
    "all_lines_varname": "L",
    "color": "gray",
    "notes": "L-all times"
  },
  {
    "objectid": 195,
    "station_name": "Christopher St - Sheridan Sq",
    "longitude": -74.002906,
    "latitude": 40.733422,
    "line": "1,2",
    "line_varname": 12,
    "all_lines_varname": 12,
    "color": "red",
    "notes": "1-all times, 2-nights"
  },
  {
    "objectid": 196,
    "station_name": "Ozone Park - Lefferts Blvd",
    "longitude": -73.825798,
    "latitude": 40.685951,
    "line": "A,S",
    "line_varname": "AS",
    "all_lines_varname": "AS",
    "color": "multiple",
    "notes": "S to Euclid Av-nights, A-all other times"
  },
  {
    "objectid": 197,
    "station_name": "Times Sq - 42nd St",
    "longitude": -73.987691,
    "latitude": 40.755477,
    "line": "7,7 Express",
    "line_varname": 77,
    "all_lines_varname": "1237NQRWS",
    "color": "purple",
    "notes": "7-all times, 7 Express-rush hours AM westbound, PM eastbound"
  },
  {
    "objectid": 198,
    "station_name": "W 8th St - NY Aquarium",
    "longitude": -73.97595787,
    "latitude": 40.57603382,
    "line": "F,Q",
    "line_varname": "FQ",
    "all_lines_varname": "FQ",
    "color": "multiple",
    "notes": "F,Q-all times"
  },
  {
    "objectid": 199,
    "station_name": "28th St",
    "longitude": -73.993365,
    "latitude": 40.747215,
    "line": "1,2",
    "line_varname": 12,
    "all_lines_varname": 12,
    "color": "red",
    "notes": "1-all times, 2-nights"
  },
  {
    "objectid": 200,
    "station_name": "28th St",
    "longitude": -73.984264,
    "latitude": 40.74307,
    "line": "4,6,6 Express",
    "line_varname": 466,
    "all_lines_varname": 466,
    "color": "green",
    "notes": "4 nights, 6-all times, 6 Express-weekdays AM southbound, PM northbound"
  },
  {
    "objectid": 201,
    "station_name": "Pelham Bay Park",
    "longitude": -73.828121,
    "latitude": 40.852462,
    "line": "6,6 Express",
    "line_varname": 66,
    "all_lines_varname": 66,
    "color": "green",
    "notes": "6 Express-weekdays AM southbound, PM northbound, 6-all other times"
  },
  {
    "objectid": 202,
    "station_name": "Westchester Sq - E Tremont Ave",
    "longitude": -73.842952,
    "latitude": 40.839892,
    "line": "6,6 Express",
    "line_varname": 66,
    "all_lines_varname": 66,
    "color": "green",
    "notes": "6 Express-weekdays AM southbound, PM northbound, 6-all other times"
  },
  {
    "objectid": 203,
    "station_name": "18th St",
    "longitude": -73.997871,
    "latitude": 40.74104,
    "line": "1,2",
    "line_varname": 12,
    "all_lines_varname": 12,
    "color": "red",
    "notes": "1-all times, 2-nights"
  },
  {
    "objectid": 204,
    "station_name": "Grand Central - 42nd St",
    "longitude": -73.976041,
    "latitude": 40.751431,
    "line": "7,7 Express",
    "line_varname": 77,
    "all_lines_varname": 77,
    "color": "purple",
    "notes": "7-all times, 7 Express-rush hours AM westbound, PM eastbound"
  },
  {
    "objectid": 205,
    "station_name": "Beach 67th St",
    "longitude": -73.796924,
    "latitude": 40.590927,
    "line": "A",
    "line_varname": "A",
    "all_lines_varname": "A",
    "color": "blue",
    "notes": "A-all times"
  },
  {
    "objectid": 206,
    "station_name": "W 4th St - Washington Sq (Upper)",
    "longitude": -74.000495,
    "latitude": 40.732338,
    "line": "A,C,E",
    "line_varname": "ACE",
    "all_lines_varname": "ACE",
    "color": "blue",
    "notes": "A,E-all times, C-all times exc nights"
  },
  {
    "objectid": 207,
    "station_name": "85th St - Forest Pky",
    "longitude": -73.860087,
    "latitude": 40.692427,
    "line": "J",
    "line_varname": "J",
    "all_lines_varname": "J",
    "color": "brown",
    "notes": "J-all times"
  },
  {
    "objectid": 208,
    "station_name": "Woodhaven Blvd",
    "longitude": -73.852052,
    "latitude": 40.693704,
    "line": "J,Z",
    "line_varname": "JZ",
    "all_lines_varname": "JZ",
    "color": "brown",
    "notes": "J-all times, Z-rush hours AM westbound, PM eastbound"
  },
  {
    "objectid": 209,
    "station_name": "111th St",
    "longitude": -73.83679338,
    "latitude": 40.69711481,
    "line": "J",
    "line_varname": "J",
    "all_lines_varname": "J",
    "color": "brown",
    "notes": "J-all times"
  },
  {
    "objectid": 210,
    "station_name": "121st St",
    "longitude": -73.828349,
    "latitude": 40.700482,
    "line": "J,Z",
    "line_varname": "JZ",
    "all_lines_varname": "JZ",
    "color": "brown",
    "notes": "Z-rush hours AM westbound, PM eastbound, J-all other times"
  },
  {
    "objectid": 211,
    "station_name": "Halsey St",
    "longitude": -73.903934,
    "latitude": 40.695518,
    "line": "L",
    "line_varname": "L",
    "all_lines_varname": "L",
    "color": "gray",
    "notes": "L-all times"
  },
  {
    "objectid": 212,
    "station_name": "Myrtle - Wyckoff Aves",
    "longitude": -73.91097572,
    "latitude": 40.69947106,
    "line": "L",
    "line_varname": "L",
    "all_lines_varname": "L",
    "color": "gray",
    "notes": "L-all times"
  },
  {
    "objectid": 213,
    "station_name": "New Lots Ave",
    "longitude": -73.88411071,
    "latitude": 40.66631493,
    "line": "3,4",
    "line_varname": 34,
    "all_lines_varname": 34,
    "color": "multiple",
    "notes": "4-nights, 3-all other times"
  },
  {
    "objectid": 214,
    "station_name": "Van Siclen Ave",
    "longitude": -73.890358,
    "latitude": 40.67271,
    "line": "A,C",
    "line_varname": "AC",
    "all_lines_varname": "AC",
    "color": "blue",
    "notes": "A-nights, C-all other times"
  },
  {
    "objectid": 215,
    "station_name": "Cleveland St",
    "longitude": -73.885194,
    "latitude": 40.679778,
    "line": "J",
    "line_varname": "J",
    "all_lines_varname": "J",
    "color": "brown",
    "notes": "J-all times"
  },
  {
    "objectid": 216,
    "station_name": "Livonia Ave",
    "longitude": -73.90056237,
    "latitude": 40.66405727,
    "line": "L",
    "line_varname": "L",
    "all_lines_varname": "L",
    "color": "gray",
    "notes": "L-all times"
  },
  {
    "objectid": 217,
    "station_name": "Junius St",
    "longitude": -73.90244864,
    "latitude": 40.663589,
    "line": "3,4",
    "line_varname": 34,
    "all_lines_varname": 34,
    "color": "multiple",
    "notes": "4-nights, 3-all other times"
  },
  {
    "objectid": 218,
    "station_name": "Rockaway Ave",
    "longitude": -73.90895834,
    "latitude": 40.66261749,
    "line": "3,4",
    "line_varname": 34,
    "all_lines_varname": 34,
    "color": "multiple",
    "notes": "4-nights, 3-all other times"
  },
  {
    "objectid": 219,
    "station_name": "Canarsie - Rockaway Pkwy",
    "longitude": -73.90185,
    "latitude": 40.64665367,
    "line": "L",
    "line_varname": "L",
    "all_lines_varname": "L",
    "color": "gray",
    "notes": "L-all times"
  },
  {
    "objectid": 220,
    "station_name": "E 105th St",
    "longitude": -73.89954769,
    "latitude": 40.65046879,
    "line": "L",
    "line_varname": "L",
    "all_lines_varname": "L",
    "color": "gray",
    "notes": "L-all times"
  },
  {
    "objectid": 221,
    "station_name": "Saratoga Ave",
    "longitude": -73.91633025,
    "latitude": 40.66152979,
    "line": "3,4",
    "line_varname": 34,
    "all_lines_varname": 34,
    "color": "multiple",
    "notes": "4-nights, 3-all other times"
  },
  {
    "objectid": 222,
    "station_name": "Sutter Ave - Rutland Road",
    "longitude": -73.92252119,
    "latitude": 40.66476679,
    "line": "3,4",
    "line_varname": 34,
    "all_lines_varname": 34,
    "color": "multiple",
    "notes": "4-nights, 3-all other times"
  },
  {
    "objectid": 223,
    "station_name": "New Lots Ave",
    "longitude": -73.89927796,
    "latitude": 40.65891477,
    "line": "L",
    "line_varname": "L",
    "all_lines_varname": "L",
    "color": "gray",
    "notes": "L-all times"
  },
  {
    "objectid": 224,
    "station_name": "Broadway Junction",
    "longitude": -73.90429,
    "latitude": 40.679366,
    "line": "J,Z",
    "line_varname": "JZ",
    "all_lines_varname": "JZ",
    "color": "brown",
    "notes": "J-all times, Z-rush hours AM westbound, PM eastbound"
  },
  {
    "objectid": 225,
    "station_name": "Alabama Ave",
    "longitude": -73.898526,
    "latitude": 40.676998,
    "line": "J",
    "line_varname": "J",
    "all_lines_varname": "J",
    "color": "brown",
    "notes": "J-all times"
  },
  {
    "objectid": 226,
    "station_name": "Shepherd Ave",
    "longitude": -73.88075,
    "latitude": 40.67413,
    "line": "A,C",
    "line_varname": "AC",
    "all_lines_varname": "AC",
    "color": "blue",
    "notes": "A-nights, C-all other times"
  },
  {
    "objectid": 227,
    "station_name": "Crescent St",
    "longitude": -73.87392925,
    "latitude": 40.68315266,
    "line": "J,Z",
    "line_varname": "JZ",
    "all_lines_varname": "JZ",
    "color": "brown",
    "notes": "J-all times, Z-rush hours AM westbound, PM eastbound"
  },
  {
    "objectid": 228,
    "station_name": "Cypress Hills",
    "longitude": -73.873322,
    "latitude": 40.689616,
    "line": "J",
    "line_varname": "J",
    "all_lines_varname": "J",
    "color": "brown",
    "notes": "J-all times"
  },
  {
    "objectid": 229,
    "station_name": "75th St - Eldert Ln",
    "longitude": -73.867288,
    "latitude": 40.69129,
    "line": "J,Z",
    "line_varname": "JZ",
    "all_lines_varname": "JZ",
    "color": "brown",
    "notes": "Z-rush hours AM westbound, PM eastbound, J-all other times"
  },
  {
    "objectid": 230,
    "station_name": "69th St",
    "longitude": -73.896403,
    "latitude": 40.746325,
    "line": 7,
    "line_varname": 7,
    "all_lines_varname": 7,
    "color": "purple",
    "notes": "7-all times"
  },
  {
    "objectid": 231,
    "station_name": "74th St - Broadway",
    "longitude": -73.89120513,
    "latitude": 40.74686757,
    "line": 7,
    "line_varname": 7,
    "all_lines_varname": 7,
    "color": "purple",
    "notes": "7-all times"
  },
  {
    "objectid": 232,
    "station_name": "Woodhaven Blvd - Queens Mall",
    "longitude": -73.86943209,
    "latitude": 40.73309737,
    "line": "E,M,R",
    "line_varname": "EMR",
    "all_lines_varname": "EMR",
    "color": "multiple",
    "notes": "E-nights, R-all other times, M-weekdays and evenings"
  },
  {
    "objectid": 233,
    "station_name": "Myrtle - Wyckoff Aves",
    "longitude": -73.912179,
    "latitude": 40.699454,
    "line": "M",
    "line_varname": "M",
    "all_lines_varname": "M",
    "color": "orange",
    "notes": "M-all times"
  },
  {
    "objectid": 234,
    "station_name": "Seneca Ave",
    "longitude": -73.907582,
    "latitude": 40.702919,
    "line": "M",
    "line_varname": "M",
    "all_lines_varname": "M",
    "color": "orange",
    "notes": "M-all times"
  },
  {
    "objectid": 235,
    "station_name": "DeKalb Ave",
    "longitude": -73.918232,
    "latitude": 40.703693,
    "line": "L",
    "line_varname": "L",
    "all_lines_varname": "L",
    "color": "gray",
    "notes": "L-all times"
  },
  {
    "objectid": 236,
    "station_name": "52nd St",
    "longitude": -73.912549,
    "latitude": 40.744149,
    "line": 7,
    "line_varname": 7,
    "all_lines_varname": 7,
    "color": "purple",
    "notes": "7-all times"
  },
  {
    "objectid": 237,
    "station_name": "46th St",
    "longitude": -73.91352175,
    "latitude": 40.75631695,
    "line": "E,M,R",
    "line_varname": "EMR",
    "all_lines_varname": "EMR",
    "color": "multiple",
    "notes": "E-nights, R-all other times, M-weekdays and evenings"
  },
  {
    "objectid": 238,
    "station_name": "Northern Blvd",
    "longitude": -73.90606508,
    "latitude": 40.75282483,
    "line": "E,M,R",
    "line_varname": "EMR",
    "all_lines_varname": "EMR",
    "color": "multiple",
    "notes": "E-nights, R-all other times, M-weekdays and evenings"
  },
  {
    "objectid": 239,
    "station_name": "46th St",
    "longitude": -73.918435,
    "latitude": 40.743132,
    "line": 7,
    "line_varname": 7,
    "all_lines_varname": 7,
    "color": "purple",
    "notes": "7-all times"
  },
  {
    "objectid": 240,
    "station_name": "82nd St - Jackson Hts",
    "longitude": -73.883697,
    "latitude": 40.747659,
    "line": 7,
    "line_varname": 7,
    "all_lines_varname": 7,
    "color": "purple",
    "notes": "7-all times"
  },
  {
    "objectid": 241,
    "station_name": "90th St - Elmhurst Av",
    "longitude": -73.876613,
    "latitude": 40.748408,
    "line": 7,
    "line_varname": 7,
    "all_lines_varname": 7,
    "color": "purple",
    "notes": "7-all times"
  },
  {
    "objectid": 242,
    "station_name": "Howard Beach - JFK Airport",
    "longitude": -73.830301,
    "latitude": 40.660476,
    "line": "A",
    "line_varname": "A",
    "all_lines_varname": "A",
    "color": "blue",
    "notes": "A-all times"
  },
  {
    "objectid": 243,
    "station_name": "Aqueduct - North Conduit Av",
    "longitude": -73.834058,
    "latitude": 40.668234,
    "line": "A",
    "line_varname": "A",
    "all_lines_varname": "A",
    "color": "blue",
    "notes": "A-all times"
  },
  {
    "objectid": 244,
    "station_name": "Briarwood - Van Wyck Blvd",
    "longitude": -73.82069264,
    "latitude": 40.70916182,
    "line": "E,F",
    "line_varname": "EF",
    "all_lines_varname": "EF",
    "color": "multiple",
    "notes": "E-evenings, weekends, nights, F-all times"
  },
  {
    "objectid": 245,
    "station_name": "Forest Hills - 71st Av",
    "longitude": -73.84451672,
    "latitude": 40.72159431,
    "line": "E,F,M,R",
    "line_varname": "EFMR",
    "all_lines_varname": "EFMR",
    "color": "multiple",
    "notes": "E,F-all times, M-weekdays and evenings, R-all times exc nights"
  },
  {
    "objectid": 246,
    "station_name": "Sutphin Blvd",
    "longitude": -73.810833,
    "latitude": 40.705418,
    "line": "F",
    "line_varname": "F",
    "all_lines_varname": "F",
    "color": "orange",
    "notes": "F-all times"
  },
  {
    "objectid": 247,
    "station_name": "Jamaica Ctr - Parsons / Archer",
    "longitude": -73.80109632,
    "latitude": 40.70206738,
    "line": "E,J,Z",
    "line_varname": "EJZ",
    "all_lines_varname": "EJZ",
    "color": "multiple",
    "notes": "E,J-all times, Z-rush hours AM westbound, PM eastbound"
  },
  {
    "objectid": 248,
    "station_name": "225th St",
    "longitude": -73.86021462,
    "latitude": 40.88802826,
    "line": "2,5",
    "line_varname": 25,
    "all_lines_varname": 25,
    "color": "multiple",
    "notes": "2-all times, 5-rush hours AM southbound, PM northbound"
  },
  {
    "objectid": 249,
    "station_name": "Elder Ave",
    "longitude": -73.879159,
    "latitude": 40.828584,
    "line": 6,
    "line_varname": 6,
    "all_lines_varname": 6,
    "color": "green",
    "notes": "6-all times"
  },
  {
    "objectid": 250,
    "station_name": "Longwood Ave",
    "longitude": -73.896435,
    "latitude": 40.816104,
    "line": 6,
    "line_varname": 6,
    "all_lines_varname": 6,
    "color": "green",
    "notes": "6-all times"
  },
  {
    "objectid": 251,
    "station_name": "Astoria Blvd",
    "longitude": -73.918095,
    "latitude": 40.770037,
    "line": "N,W",
    "line_varname": "NW",
    "all_lines_varname": "NW",
    "color": "yellow",
    "notes": "N-all times, W part time"
  },
  {
    "objectid": 252,
    "station_name": "Astoria - Ditmars Blvd",
    "longitude": -73.912034,
    "latitude": 40.77503567,
    "line": "N,W",
    "line_varname": "NW",
    "all_lines_varname": "NW",
    "color": "yellow",
    "notes": "N-all times, W part time"
  },
  {
    "objectid": 253,
    "station_name": "Jackson Ave",
    "longitude": -73.90770194,
    "latitude": 40.81643747,
    "line": "2,5",
    "line_varname": 25,
    "all_lines_varname": 25,
    "color": "multiple",
    "notes": "2-all times, 5-all times exc nights, skips rush hours AM southbound, PM northbound"
  },
  {
    "objectid": 254,
    "station_name": "Prospect Ave",
    "longitude": -73.90177779,
    "latitude": 40.81948726,
    "line": "2,5",
    "line_varname": 25,
    "all_lines_varname": 25,
    "color": "multiple",
    "notes": "2-all times, 5-all times exc nights, skips rush hours AM southbound, PM northbound"
  },
  {
    "objectid": 255,
    "station_name": "Cypress Ave",
    "longitude": -73.914042,
    "latitude": 40.805368,
    "line": 6,
    "line_varname": 6,
    "all_lines_varname": 6,
    "color": "green",
    "notes": "6-all times"
  },
  {
    "objectid": 256,
    "station_name": "174th St",
    "longitude": -73.8876936,
    "latitude": 40.83719555,
    "line": "2,5",
    "line_varname": 25,
    "all_lines_varname": 25,
    "color": "multiple",
    "notes": "2-all times, 5-all times exc nights, skips rush hours AM southbound, PM northbound"
  },
  {
    "objectid": 257,
    "station_name": "Allerton Ave",
    "longitude": -73.86723423,
    "latitude": 40.86548338,
    "line": "2,5",
    "line_varname": 25,
    "all_lines_varname": 25,
    "color": "multiple",
    "notes": "2-all times, 5-rush hours AM southbound, PM northbound"
  },
  {
    "objectid": 258,
    "station_name": "E 143rd St - St Mary's St",
    "longitude": -73.907657,
    "latitude": 40.808719,
    "line": 6,
    "line_varname": 6,
    "all_lines_varname": 6,
    "color": "green",
    "notes": "6-all times"
  },
  {
    "objectid": 259,
    "station_name": "Kingsbridge Rd",
    "longitude": -73.897174,
    "latitude": 40.86776,
    "line": 4,
    "line_varname": 4,
    "all_lines_varname": 4,
    "color": "green",
    "notes": "4-all times"
  },
  {
    "objectid": 260,
    "station_name": "Bedford Park Blvd - Lehman College",
    "longitude": -73.890064,
    "latitude": 40.873412,
    "line": 4,
    "line_varname": 4,
    "all_lines_varname": 4,
    "color": "green",
    "notes": "4-all times"
  },
  {
    "objectid": 261,
    "station_name": "Harlem - 148 St",
    "longitude": -73.93647,
    "latitude": 40.82388,
    "line": 3,
    "line_varname": 3,
    "all_lines_varname": 3,
    "color": "red",
    "notes": "3-all times"
  },
  {
    "objectid": 262,
    "station_name": "Mt Eden Ave",
    "longitude": -73.914685,
    "latitude": 40.844434,
    "line": 4,
    "line_varname": 4,
    "all_lines_varname": 4,
    "color": "green",
    "notes": "4-all times"
  },
  {
    "objectid": 263,
    "station_name": "Fordham Rd",
    "longitude": -73.897749,
    "latitude": 40.861296,
    "line": "B,D",
    "line_varname": "BD",
    "all_lines_varname": "BD",
    "color": "orange",
    "notes": "B-rush hours, D-all times"
  },
  {
    "objectid": 264,
    "station_name": "170th St",
    "longitude": -73.917791,
    "latitude": 40.840075,
    "line": 4,
    "line_varname": 4,
    "all_lines_varname": 4,
    "color": "green",
    "notes": "4-all times"
  },
  {
    "objectid": 265,
    "station_name": "Bedford Park Blvd",
    "longitude": -73.887138,
    "latitude": 40.873244,
    "line": "B,D",
    "line_varname": "BD",
    "all_lines_varname": "BD",
    "color": "orange",
    "notes": "B-rush hours, D-all times"
  },
  {
    "objectid": 266,
    "station_name": "Marble Hill - 225th St",
    "longitude": -73.909831,
    "latitude": 40.874561,
    "line": 1,
    "line_varname": 1,
    "all_lines_varname": 1,
    "color": "red",
    "notes": "1-all times"
  },
  {
    "objectid": 267,
    "station_name": "231st St",
    "longitude": -73.904834,
    "latitude": 40.878856,
    "line": 1,
    "line_varname": 1,
    "all_lines_varname": 1,
    "color": "red",
    "notes": "1-all times"
  },
  {
    "objectid": 268,
    "station_name": "215th St",
    "longitude": -73.915279,
    "latitude": 40.869444,
    "line": 1,
    "line_varname": 1,
    "all_lines_varname": 1,
    "color": "red",
    "notes": "1-all times"
  },
  {
    "objectid": 269,
    "station_name": "207th St",
    "longitude": -73.918819,
    "latitude": 40.864614,
    "line": 1,
    "line_varname": 1,
    "all_lines_varname": 1,
    "color": "red",
    "notes": "1-all times"
  },
  {
    "objectid": 270,
    "station_name": "Inwood - 207th St",
    "longitude": -73.919899,
    "latitude": 40.868072,
    "line": "A",
    "line_varname": "A",
    "all_lines_varname": "A",
    "color": "blue",
    "notes": "A-all times"
  },
  {
    "objectid": 271,
    "station_name": "Van Cortlandt Park - 242nd St",
    "longitude": -73.898583,
    "latitude": 40.889248,
    "line": 1,
    "line_varname": 1,
    "all_lines_varname": 1,
    "color": "red",
    "notes": "1-all times"
  },
  {
    "objectid": 272,
    "station_name": "West Farms Sq - E Tremont Av",
    "longitude": -73.87996128,
    "latitude": 40.84020763,
    "line": "2,5",
    "line_varname": 25,
    "all_lines_varname": 25,
    "color": "multiple",
    "notes": "2-all times, 5-all times exc nights, skips rush hours AM southbound, PM northbound"
  },
  {
    "objectid": 273,
    "station_name": "219th St",
    "longitude": -73.86250971,
    "latitude": 40.88388797,
    "line": "2,5",
    "line_varname": 25,
    "all_lines_varname": 25,
    "color": "multiple",
    "notes": "2-all times, 5-rush hours AM southbound, PM northbound"
  },
  {
    "objectid": 274,
    "station_name": "Mosholu Pkwy",
    "longitude": -73.884655,
    "latitude": 40.87975,
    "line": 4,
    "line_varname": 4,
    "all_lines_varname": 4,
    "color": "green",
    "notes": "4-all times"
  },
  {
    "objectid": 275,
    "station_name": "Norwood - 205th St",
    "longitude": -73.878855,
    "latitude": 40.874811,
    "line": "D",
    "line_varname": "D",
    "all_lines_varname": "D",
    "color": "orange",
    "notes": "D-all times"
  },
  {
    "objectid": 276,
    "station_name": "Burke Ave",
    "longitude": -73.86705362,
    "latitude": 40.8712588,
    "line": "2,5",
    "line_varname": 25,
    "all_lines_varname": 25,
    "color": "multiple",
    "notes": "2-all times, 5-rush hours AM southbound, PM northbound"
  },
  {
    "objectid": 277,
    "station_name": "Baychester Ave",
    "longitude": -73.838591,
    "latitude": 40.878663,
    "line": 5,
    "line_varname": 5,
    "all_lines_varname": 5,
    "color": "green",
    "notes": "5-all times"
  },
  {
    "objectid": 278,
    "station_name": "Eastchester - Dyre Ave",
    "longitude": -73.830834,
    "latitude": 40.8883,
    "line": 5,
    "line_varname": 5,
    "all_lines_varname": 5,
    "color": "green",
    "notes": "5-all times"
  },
  {
    "objectid": 279,
    "station_name": "Jamaica - 179th St",
    "longitude": -73.783817,
    "latitude": 40.71264567,
    "line": "F",
    "line_varname": "F",
    "all_lines_varname": "F",
    "color": "orange",
    "notes": "F-all times"
  },
  {
    "objectid": 280,
    "station_name": "Wakefield - 241st St",
    "longitude": -73.85062,
    "latitude": 40.903125,
    "line": 2,
    "line_varname": 2,
    "all_lines_varname": 2,
    "color": "red",
    "notes": "2-all times"
  },
  {
    "objectid": 281,
    "station_name": "Botanic Garden",
    "longitude": -73.959245,
    "latitude": 40.67034267,
    "line": "S",
    "line_varname": "S",
    "all_lines_varname": "S",
    "color": "shuttlegray",
    "notes": "S Franklin Av-Fulton St to Prospect Park-all times"
  },
  {
    "objectid": 282,
    "station_name": "Bushwick - Aberdeen",
    "longitude": -73.90526176,
    "latitude": 40.68286063,
    "line": "L",
    "line_varname": "L",
    "all_lines_varname": "L",
    "color": "gray",
    "notes": "L-all times"
  },
  {
    "objectid": 283,
    "station_name": "Broadway Junction",
    "longitude": -73.90311758,
    "latitude": 40.67845625,
    "line": "L",
    "line_varname": "L",
    "all_lines_varname": "L",
    "color": "gray",
    "notes": "L-all times"
  },
  {
    "objectid": 284,
    "station_name": "Gun Hill Rd",
    "longitude": -73.846384,
    "latitude": 40.869526,
    "line": 5,
    "line_varname": 5,
    "all_lines_varname": 5,
    "color": "green",
    "notes": "5-all times"
  },
  {
    "objectid": 285,
    "station_name": "E 180th St",
    "longitude": -73.8733461,
    "latitude": 40.84186304,
    "line": "2,5",
    "line_varname": 25,
    "all_lines_varname": 25,
    "color": "multiple",
    "notes": "2,5-all times"
  },
  {
    "objectid": 286,
    "station_name": "Dyckman St",
    "longitude": -73.925536,
    "latitude": 40.860531,
    "line": 1,
    "line_varname": 1,
    "all_lines_varname": 1,
    "color": "red",
    "notes": "1-all times"
  },
  {
    "objectid": 287,
    "station_name": "125th St",
    "longitude": -73.958372,
    "latitude": 40.815581,
    "line": 1,
    "line_varname": 1,
    "all_lines_varname": 1,
    "color": "red",
    "notes": "1-all times"
  },
  {
    "objectid": 288,
    "station_name": "Franklin Ave - Fulton St",
    "longitude": -73.955827,
    "latitude": 40.68059567,
    "line": "S",
    "line_varname": "S",
    "all_lines_varname": "S",
    "color": "shuttlegray",
    "notes": "S to Prospect Park-all times"
  },
  {
    "objectid": 289,
    "station_name": "149th St - Grand Concourse",
    "longitude": -73.92672247,
    "latitude": 40.81833014,
    "line": "2,5",
    "line_varname": 25,
    "all_lines_varname": 25,
    "color": "multiple",
    "notes": "2-all times, 5-all times exc nights"
  },
  {
    "objectid": 290,
    "station_name": "3rd Ave - 149th St",
    "longitude": -73.91779153,
    "latitude": 40.81602925,
    "line": "2,5",
    "line_varname": 25,
    "all_lines_varname": 25,
    "color": "multiple",
    "notes": "2-all times, 5-all times exc nights"
  },
  {
    "objectid": 291,
    "station_name": "167th St",
    "longitude": -73.9214,
    "latitude": 40.835537,
    "line": 4,
    "line_varname": 4,
    "all_lines_varname": 4,
    "color": "green",
    "notes": "4-all times"
  },
  {
    "objectid": 292,
    "station_name": "Brook Ave",
    "longitude": -73.91924,
    "latitude": 40.807566,
    "line": 6,
    "line_varname": 6,
    "all_lines_varname": 6,
    "color": "green",
    "notes": "6-all times"
  },
  {
    "objectid": 293,
    "station_name": "33rd St",
    "longitude": -73.930997,
    "latitude": 40.744587,
    "line": 7,
    "line_varname": 7,
    "all_lines_varname": 7,
    "color": "purple",
    "notes": "7-all times"
  },
  {
    "objectid": 294,
    "station_name": "40th St",
    "longitude": -73.924016,
    "latitude": 40.743781,
    "line": 7,
    "line_varname": 7,
    "all_lines_varname": 7,
    "color": "purple",
    "notes": "7-all times"
  },
  {
    "objectid": 295,
    "station_name": "145th St",
    "longitude": -73.94408793,
    "latitude": 40.82476636,
    "line": "A,B,C,D",
    "line_varname": "ABCD",
    "all_lines_varname": "ABCD",
    "color": "multiple",
    "notes": "A,D-all times, B-weekdays and evenings, C-all times exc nights"
  },
  {
    "objectid": 296,
    "station_name": "155th St",
    "longitude": -73.938209,
    "latitude": 40.830135,
    "line": "B,D",
    "line_varname": "BD",
    "all_lines_varname": "BD",
    "color": "orange",
    "notes": "B-rush hours, D-all times, skips rush hours AM southbound, PM northbound"
  },
  {
    "objectid": 297,
    "station_name": "161st St - Yankee Stadium",
    "longitude": -73.925651,
    "latitude": 40.827905,
    "line": "B,D",
    "line_varname": "BD",
    "all_lines_varname": "BD",
    "color": "orange",
    "notes": "B-rush hours, D-all times, skips rush hours AM southbound, PM northbound"
  },
  {
    "objectid": 298,
    "station_name": "Utica Ave",
    "longitude": -73.930729,
    "latitude": 40.679364,
    "line": "A,C",
    "line_varname": "AC",
    "all_lines_varname": "AC",
    "color": "blue",
    "notes": "A-all times, C-all times exc nights"
  },
  {
    "objectid": 299,
    "station_name": "Steinway St",
    "longitude": -73.92052647,
    "latitude": 40.75698736,
    "line": "E,M,R",
    "line_varname": "EMR",
    "all_lines_varname": "EMR",
    "color": "multiple",
    "notes": "E-nights, R-all other times, M-weekdays and evenings"
  },
  {
    "objectid": 300,
    "station_name": "Kosciuszko St",
    "longitude": -73.928509,
    "latitude": 40.693172,
    "line": "J",
    "line_varname": "J",
    "all_lines_varname": "J",
    "color": "brown",
    "notes": "J-all times"
  },
  {
    "objectid": 301,
    "station_name": "Gates Ave",
    "longitude": -73.922156,
    "latitude": 40.689584,
    "line": "J,Z",
    "line_varname": "JZ",
    "all_lines_varname": "JZ",
    "color": "brown",
    "notes": "Z-rush hours AM westbound, PM eastbound, J-all other times"
  },
  {
    "objectid": 302,
    "station_name": "Central Ave",
    "longitude": -73.927243,
    "latitude": 40.697873,
    "line": "M",
    "line_varname": "M",
    "all_lines_varname": "M",
    "color": "orange",
    "notes": "M-all times"
  },
  {
    "objectid": 303,
    "station_name": "Knickerbocker Ave",
    "longitude": -73.91972,
    "latitude": 40.69866,
    "line": "M",
    "line_varname": "M",
    "all_lines_varname": "M",
    "color": "orange",
    "notes": "M-all times"
  },
  {
    "objectid": 304,
    "station_name": "30th Ave",
    "longitude": -73.921479,
    "latitude": 40.76677867,
    "line": "N,W",
    "line_varname": "NW",
    "all_lines_varname": "NW",
    "color": "yellow",
    "notes": "N-all times, W part time"
  },
  {
    "objectid": 305,
    "station_name": "Jefferson St",
    "longitude": -73.922913,
    "latitude": 40.70660667,
    "line": "L",
    "line_varname": "L",
    "all_lines_varname": "L",
    "color": "gray",
    "notes": "L-all times"
  },
  {
    "objectid": 306,
    "station_name": "Morgan Ave",
    "longitude": -73.933147,
    "latitude": 40.70615167,
    "line": "L",
    "line_varname": "L",
    "all_lines_varname": "L",
    "color": "gray",
    "notes": "L-all times"
  },
  {
    "objectid": 307,
    "station_name": "Queens Plz",
    "longitude": -73.93713824,
    "latitude": 40.74891772,
    "line": "E,M,R",
    "line_varname": "EMR",
    "all_lines_varname": "EMR",
    "color": "multiple",
    "notes": "E-all times, M-weekdays and evenings, R-all times exc nights"
  },
  {
    "objectid": 308,
    "station_name": "18th Ave",
    "longitude": -73.976971,
    "latitude": 40.62975467,
    "line": "F",
    "line_varname": "F",
    "all_lines_varname": "F",
    "color": "orange",
    "notes": "F-all times"
  },
  {
    "objectid": 309,
    "station_name": "77th St",
    "longitude": -74.02551,
    "latitude": 40.62974167,
    "line": "R",
    "line_varname": "R",
    "all_lines_varname": "R",
    "color": "yellow",
    "notes": "R-all times"
  },
  {
    "objectid": 310,
    "station_name": "Bay Ridge Ave",
    "longitude": -74.023377,
    "latitude": 40.63496667,
    "line": "R",
    "line_varname": "R",
    "all_lines_varname": "R",
    "color": "yellow",
    "notes": "R-all times"
  },
  {
    "objectid": 311,
    "station_name": "50th St",
    "longitude": -73.99465878,
    "latitude": 40.63626089,
    "line": "D",
    "line_varname": "D",
    "all_lines_varname": "D",
    "color": "orange",
    "notes": "D-all times"
  },
  {
    "objectid": 312,
    "station_name": "Ft Hamilton Pkwy",
    "longitude": -74.005351,
    "latitude": 40.63138567,
    "line": "N",
    "line_varname": "N",
    "all_lines_varname": "N",
    "color": "yellow",
    "notes": "N-all times"
  },
  {
    "objectid": 313,
    "station_name": "25th Ave",
    "longitude": -73.986829,
    "latitude": 40.59770367,
    "line": "D",
    "line_varname": "D",
    "all_lines_varname": "D",
    "color": "orange",
    "notes": "D-all times"
  },
  {
    "objectid": 314,
    "station_name": "Bay Pky",
    "longitude": -73.9936762,
    "latitude": 40.60195046,
    "line": "D",
    "line_varname": "D",
    "all_lines_varname": "D",
    "color": "orange",
    "notes": "D-all times"
  },
  {
    "objectid": 315,
    "station_name": "20th Ave",
    "longitude": -73.984522,
    "latitude": 40.617109,
    "line": "N",
    "line_varname": "N",
    "all_lines_varname": "N",
    "color": "yellow",
    "notes": "N-all times"
  },
  {
    "objectid": 316,
    "station_name": "18th Ave",
    "longitude": -73.990454,
    "latitude": 40.620687,
    "line": "N",
    "line_varname": "N",
    "all_lines_varname": "N",
    "color": "yellow",
    "notes": "N-all times"
  },
  {
    "objectid": 317,
    "station_name": "Bay Ridge - 95th St",
    "longitude": -74.030876,
    "latitude": 40.61662167,
    "line": "R",
    "line_varname": "R",
    "all_lines_varname": "R",
    "color": "yellow",
    "notes": "R-all times"
  },
  {
    "objectid": 318,
    "station_name": "86th St",
    "longitude": -74.028398,
    "latitude": 40.62268667,
    "line": "R",
    "line_varname": "R",
    "all_lines_varname": "R",
    "color": "yellow",
    "notes": "R-all times"
  },
  {
    "objectid": 319,
    "station_name": "79th St",
    "longitude": -74.00058287,
    "latitude": 40.61315893,
    "line": "D",
    "line_varname": "D",
    "all_lines_varname": "D",
    "color": "orange",
    "notes": "D-all times"
  },
  {
    "objectid": 320,
    "station_name": "71st St",
    "longitude": -73.99884095,
    "latitude": 40.61925871,
    "line": "D",
    "line_varname": "D",
    "all_lines_varname": "D",
    "color": "orange",
    "notes": "D-all times"
  },
  {
    "objectid": 321,
    "station_name": "20th Ave",
    "longitude": -73.99817432,
    "latitude": 40.604677,
    "line": "D",
    "line_varname": "D",
    "all_lines_varname": "D",
    "color": "orange",
    "notes": "D-all times"
  },
  {
    "objectid": 322,
    "station_name": "18th Ave",
    "longitude": -74.00159259,
    "latitude": 40.60773573,
    "line": "D",
    "line_varname": "D",
    "all_lines_varname": "D",
    "color": "orange",
    "notes": "D-all times"
  },
  {
    "objectid": 323,
    "station_name": "62nd St",
    "longitude": -73.99685725,
    "latitude": 40.62622446,
    "line": "D",
    "line_varname": "D",
    "all_lines_varname": "D",
    "color": "orange",
    "notes": "D-all times"
  },
  {
    "objectid": 324,
    "station_name": "New Utrecht Ave",
    "longitude": -73.996353,
    "latitude": 40.62484167,
    "line": "N",
    "line_varname": "N",
    "all_lines_varname": "N",
    "color": "yellow",
    "notes": "N-all times"
  },
  {
    "objectid": 325,
    "station_name": "Ave U",
    "longitude": -73.97337642,
    "latitude": 40.59592483,
    "line": "F",
    "line_varname": "F",
    "all_lines_varname": "F",
    "color": "orange",
    "notes": "F-all times"
  },
  {
    "objectid": 326,
    "station_name": "Kings Hwy",
    "longitude": -73.97235531,
    "latitude": 40.60325841,
    "line": "F",
    "line_varname": "F",
    "all_lines_varname": "F",
    "color": "orange",
    "notes": "F-all times"
  },
  {
    "objectid": 327,
    "station_name": "Brighton Beach",
    "longitude": -73.96135379,
    "latitude": 40.5777102,
    "line": "B,Q",
    "line_varname": "BQ",
    "all_lines_varname": "BQ",
    "color": "multiple",
    "notes": "B-weekdays and evenings, Q-all times"
  },
  {
    "objectid": 328,
    "station_name": "Sheepshead Bay",
    "longitude": -73.95405791,
    "latitude": 40.58654755,
    "line": "B,Q",
    "line_varname": "BQ",
    "all_lines_varname": "BQ",
    "color": "multiple",
    "notes": "B-weekdays and evenings, Q-all times"
  },
  {
    "objectid": 329,
    "station_name": "Ave U",
    "longitude": -73.95581122,
    "latitude": 40.59930895,
    "line": "Q",
    "line_varname": "Q",
    "all_lines_varname": "Q",
    "color": "yellow",
    "notes": "Q-all times"
  },
  {
    "objectid": 330,
    "station_name": "Kings Hwy",
    "longitude": -73.95760874,
    "latitude": 40.60863865,
    "line": "B,Q",
    "line_varname": "BQ",
    "all_lines_varname": "BQ",
    "color": "multiple",
    "notes": "B-weekdays and evenings, Q-all times"
  },
  {
    "objectid": 331,
    "station_name": "Ave U",
    "longitude": -73.979084,
    "latitude": 40.597236,
    "line": "N",
    "line_varname": "N",
    "all_lines_varname": "N",
    "color": "yellow",
    "notes": "N-all times"
  },
  {
    "objectid": 332,
    "station_name": "Kings Hwy",
    "longitude": -73.980373,
    "latitude": 40.604059,
    "line": "N",
    "line_varname": "N",
    "all_lines_varname": "N",
    "color": "yellow",
    "notes": "N-all times"
  },
  {
    "objectid": 333,
    "station_name": "Neptune Ave",
    "longitude": -73.97459273,
    "latitude": 40.58073876,
    "line": "F",
    "line_varname": "F",
    "all_lines_varname": "F",
    "color": "orange",
    "notes": "F-all times"
  },
  {
    "objectid": 334,
    "station_name": "Ave X",
    "longitude": -73.974266,
    "latitude": 40.58944967,
    "line": "F",
    "line_varname": "F",
    "all_lines_varname": "F",
    "color": "orange",
    "notes": "F-all times"
  },
  {
    "objectid": 335,
    "station_name": "Bay 50th St",
    "longitude": -73.983765,
    "latitude": 40.58884067,
    "line": "D",
    "line_varname": "D",
    "all_lines_varname": "D",
    "color": "orange",
    "notes": "D-all times"
  },
  {
    "objectid": 336,
    "station_name": "Gravesend - 86th St",
    "longitude": -73.978189,
    "latitude": 40.592465,
    "line": "N",
    "line_varname": "N",
    "all_lines_varname": "N",
    "color": "yellow",
    "notes": "N-all times"
  },
  {
    "objectid": 337,
    "station_name": "Ave P",
    "longitude": -73.97300282,
    "latitude": 40.60884281,
    "line": "F",
    "line_varname": "F",
    "all_lines_varname": "F",
    "color": "orange",
    "notes": "F-all times"
  },
  {
    "objectid": 338,
    "station_name": "Ave N",
    "longitude": -73.97404851,
    "latitude": 40.61435671,
    "line": "F",
    "line_varname": "F",
    "all_lines_varname": "F",
    "color": "orange",
    "notes": "F-all times"
  },
  {
    "objectid": 339,
    "station_name": "Bay Pky",
    "longitude": -73.97525698,
    "latitude": 40.62073162,
    "line": "F",
    "line_varname": "F",
    "all_lines_varname": "F",
    "color": "orange",
    "notes": "F-all times"
  },
  {
    "objectid": 340,
    "station_name": "Ave M",
    "longitude": -73.95924311,
    "latitude": 40.61739774,
    "line": "Q",
    "line_varname": "Q",
    "all_lines_varname": "Q",
    "color": "yellow",
    "notes": "Q-all times"
  },
  {
    "objectid": 341,
    "station_name": "Bay Pky",
    "longitude": -73.98178001,
    "latitude": 40.61145579,
    "line": "N",
    "line_varname": "N",
    "all_lines_varname": "N",
    "color": "yellow",
    "notes": "N-all times"
  },
  {
    "objectid": 342,
    "station_name": "Ave I",
    "longitude": -73.97606933,
    "latitude": 40.62501744,
    "line": "F",
    "line_varname": "F",
    "all_lines_varname": "F",
    "color": "orange",
    "notes": "F-all times"
  },
  {
    "objectid": 343,
    "station_name": "Ave J",
    "longitude": -73.96069316,
    "latitude": 40.62502282,
    "line": "Q",
    "line_varname": "Q",
    "all_lines_varname": "Q",
    "color": "yellow",
    "notes": "Q-all times"
  },
  {
    "objectid": 344,
    "station_name": "Ave H",
    "longitude": -73.96151794,
    "latitude": 40.62920838,
    "line": "Q",
    "line_varname": "Q",
    "all_lines_varname": "Q",
    "color": "yellow",
    "notes": "Q-all times"
  },
  {
    "objectid": 345,
    "station_name": "Neck Rd",
    "longitude": -73.95507827,
    "latitude": 40.59532169,
    "line": "Q",
    "line_varname": "Q",
    "all_lines_varname": "Q",
    "color": "yellow",
    "notes": "Q-all times"
  },
  {
    "objectid": 346,
    "station_name": "21st St - Queensbridge",
    "longitude": -73.94193761,
    "latitude": 40.75373927,
    "line": "F",
    "line_varname": "F",
    "all_lines_varname": "F",
    "color": "orange",
    "notes": "F-all times"
  },
  {
    "objectid": 347,
    "station_name": "50th St",
    "longitude": -73.985984,
    "latitude": 40.762456,
    "line": "A,C,E",
    "line_varname": "ACE",
    "all_lines_varname": "ACE",
    "color": "blue",
    "notes": "A-nights, C-all other times, E-all times"
  },
  {
    "objectid": 348,
    "station_name": "7th Ave",
    "longitude": -73.98169782,
    "latitude": 40.76297015,
    "line": "B,D,E",
    "line_varname": "BDE",
    "all_lines_varname": "BDE",
    "color": "multiple",
    "notes": "D,E-all times, B-weekdays and evenings"
  },
  {
    "objectid": 349,
    "station_name": "47th-50th Sts - Rockefeller Ctr",
    "longitude": -73.981331,
    "latitude": 40.758641,
    "line": "B,D,F,M",
    "line_varname": "BDFM",
    "all_lines_varname": "BDFM",
    "color": "orange",
    "notes": "B,M-weekdays and evenings, D,F-all times"
  },
  {
    "objectid": 350,
    "station_name": "57th St",
    "longitude": -73.977368,
    "latitude": 40.764085,
    "line": "F",
    "line_varname": "F",
    "all_lines_varname": "F",
    "color": "orange",
    "notes": "F-all times"
  },
  {
    "objectid": 351,
    "station_name": "Lexington Ave - 63rd St",
    "longitude": -73.96608964,
    "latitude": 40.76461809,
    "line": "F,Q",
    "line_varname": "FQ",
    "all_lines_varname": "FQ",
    "color": "multiple",
    "notes": "F-all times, Q all times"
  },
  {
    "objectid": 352,
    "station_name": "Roosevelt Island - Main St",
    "longitude": -73.953235,
    "latitude": 40.759172,
    "line": "F",
    "line_varname": "F",
    "all_lines_varname": "F",
    "color": "orange",
    "notes": "F-all times"
  },
  {
    "objectid": 353,
    "station_name": "59th St - Columbus Circle",
    "longitude": -73.98164872,
    "latitude": 40.76824953,
    "line": "A,B,C,D",
    "line_varname": "ABCD",
    "all_lines_varname": "ABCD",
    "color": "multiple",
    "notes": "A,D-all times, B-weekdays and evenings, C-all times exc nights"
  },
  {
    "objectid": 354,
    "station_name": "49th St",
    "longitude": -73.98420957,
    "latitude": 40.75980197,
    "line": "N,Q,R,W",
    "line_varname": "NQRW",
    "all_lines_varname": "NQRW",
    "color": "yellow",
    "notes": "N-all times, Q-all times exc weekends, R-all times exc nights, W part time"
  },
  {
    "objectid": 355,
    "station_name": "57th St",
    "longitude": -73.98072973,
    "latitude": 40.76456553,
    "line": "N,Q,R,W",
    "line_varname": "NQRW",
    "all_lines_varname": "NQRW",
    "color": "yellow",
    "notes": "N,Q-all times, R-all times exc nights, W part time"
  },
  {
    "objectid": 356,
    "station_name": "5th Ave - 59th St",
    "longitude": -73.973347,
    "latitude": 40.764811,
    "line": "N,R,W",
    "line_varname": "NRW",
    "all_lines_varname": "NRW",
    "color": "yellow",
    "notes": "N-all times, R-all times exc nights, W part time"
  },
  {
    "objectid": 357,
    "station_name": "Lexington Ave - 59th St",
    "longitude": -73.96737502,
    "latitude": 40.76270886,
    "line": "N,R,W",
    "line_varname": "NRW",
    "all_lines_varname": "NRW",
    "color": "yellow",
    "notes": "N-all times, R-all times exc nights, W part time"
  },
  {
    "objectid": 358,
    "station_name": "34th St - Penn Station",
    "longitude": -73.991057,
    "latitude": 40.750373,
    "line": "1,2,3",
    "line_varname": 123,
    "all_lines_varname": 123,
    "color": "red",
    "notes": "1,2,3-all times"
  },
  {
    "objectid": 359,
    "station_name": "Times Sq - 42nd St",
    "longitude": -73.987495,
    "latitude": 40.75529,
    "line": "1,2,3",
    "line_varname": 123,
    "all_lines_varname": "1237NQRWS",
    "color": "red",
    "notes": "1,2,3-all times"
  },
  {
    "objectid": 360,
    "station_name": "Fulton St",
    "longitude": -74.00762309,
    "latitude": 40.71016217,
    "line": "A,C",
    "line_varname": "AC",
    "all_lines_varname": "AC",
    "color": "blue",
    "notes": "A-all times, C-all times exc nights"
  },
  {
    "objectid": 361,
    "station_name": "Chambers St",
    "longitude": -74.00858474,
    "latitude": 40.714111,
    "line": "A,C",
    "line_varname": "AC",
    "all_lines_varname": "AC",
    "color": "blue",
    "notes": "A-all times, C-all times exc nights"
  },
  {
    "objectid": 362,
    "station_name": "42nd St - Port Authority Bus Term",
    "longitude": -73.989735,
    "latitude": 40.757308,
    "line": "A,C,E",
    "line_varname": "ACE",
    "all_lines_varname": "ACE",
    "color": "blue",
    "notes": "A,E-all times, C-all times exc nights"
  },
  {
    "objectid": 363,
    "station_name": "Myrtle-Willoughby Aves",
    "longitude": -73.949067,
    "latitude": 40.694619,
    "line": "G",
    "line_varname": "G",
    "all_lines_varname": "G",
    "color": "lightgreen",
    "notes": "G-all times"
  },
  {
    "objectid": 364,
    "station_name": "Flushing Ave",
    "longitude": -73.950234,
    "latitude": 40.70037667,
    "line": "G",
    "line_varname": "G",
    "all_lines_varname": "G",
    "color": "lightgreen",
    "notes": "G-all times"
  },
  {
    "objectid": 365,
    "station_name": "23rd St",
    "longitude": -73.992765,
    "latitude": 40.74295432,
    "line": "F,M",
    "line_varname": "FM",
    "all_lines_varname": "FM",
    "color": "orange",
    "notes": "F-all times, M-weekdays and evenings"
  },
  {
    "objectid": 366,
    "station_name": "Herald Sq - 34th St",
    "longitude": -73.98777189,
    "latitude": 40.7497894,
    "line": "B,D,F,M",
    "line_varname": "BDFM",
    "all_lines_varname": "BDFM",
    "color": "orange",
    "notes": "B,M-weekdays and evenings, D,F-all times"
  },
  {
    "objectid": 367,
    "station_name": "Hoyt - Schermerhorn Sts",
    "longitude": -73.98503624,
    "latitude": 40.68840848,
    "line": "A,C,G",
    "line_varname": "ACG",
    "all_lines_varname": "ACG",
    "color": "multiple",
    "notes": "A,G-all times, C-all times exc nights"
  },
  {
    "objectid": 368,
    "station_name": "Jay St - MetroTech",
    "longitude": -73.98721815,
    "latitude": 40.69247064,
    "line": "A,C,F",
    "line_varname": "ACF",
    "all_lines_varname": "ACF",
    "color": "multiple",
    "notes": "A,F-all times, C-all times exc nights"
  },
  {
    "objectid": 369,
    "station_name": "East Broadway",
    "longitude": -73.990177,
    "latitude": 40.713855,
    "line": "F",
    "line_varname": "F",
    "all_lines_varname": "F",
    "color": "orange",
    "notes": "F-all times"
  },
  {
    "objectid": 370,
    "station_name": "Delancey St - Essex St",
    "longitude": -73.98807807,
    "latitude": 40.71868074,
    "line": "F",
    "line_varname": "F",
    "all_lines_varname": "F",
    "color": "orange",
    "notes": "F-all times"
  },